,City,Lat,Long,Max Temp,Humidity,Cloudiness,Wind Speed,Country,Date
0,Papatowai,-46.5619,169.4708,43.772000000000034,64,5,4.55,NZ,1689824020
1,Bilibino,68.0546,166.4372,61.17800000000007,71,100,2.03,RU,1689824057
2,Grytviken,-54.2811,-36.5092,24.332000000000015,79,17,5.19,GS,1689824013
3,Port-aux-Français,-49.35,70.2167,43.34000000000002,96,100,15.37,TF,1689824059
4,Adamstown,-25.066,-130.1015,72.66200000000006,78,100,11.03,PN,1689824059
5,Ambovombe,-25.1667,46.0833,63.806000000000026,93,44,2.75,MG,1689824060
6,Ed Damer,17.5928,33.9592,89.97800000000007,34,55,5.57,SD,1689824062
7,Bubaque,11.2833,-15.8333,80.54600000000005,83,66,5.78,GW,1689824063
8,Fort Bragg,35.139,-79.006,79.37600000000009,93,75,1.54,US,1689824063
9,Labytnangi,66.6572,66.4183,72.95,71,97,3.12,RU,1689824064
10,Blackmans Bay,-43.0167,147.3167,54.733999999999995,63,100,7.65,AU,1689824065
11,Hawaiian Paradise Park,19.5933,-154.9731,80.11400000000003,92,100,4.12,US,1689824065
12,Mount Isa,-20.7333,139.5,80.36600000000001,29,8,3.6,AU,1689823838
13,Jianguang,28.1938,115.7836,90.64400000000008,62,85,2.97,CN,1689824067
14,Great Falls,47.5002,-111.3008,74.58800000000005,37,0,7.2,US,1689823920
15,Stanley,54.868,-1.6985,50.73800000000004,92,0,3.6,GB,1689824068
16,Tromsø,69.6496,18.957,52.37600000000009,87,75,5.14,NO,1689824069
17,Klyuchi,52.2667,79.1667,87.00800000000001,31,14,3.53,RU,1689824070
18,Puerto Natales,-51.7236,-72.4875,35.69000000000002,94,100,1.21,CL,1689824070
19,Tura,25.5198,90.2201,86.09000000000002,70,99,2.9,IN,1689824036
20,Punta Arenas,-53.15,-70.9167,35.582000000000015,93,100,3.68,CL,1689824072
21,Bethel,41.3712,-73.414,72.64400000000008,84,75,1.54,US,1689824073
22,Wailua Homesteads,22.0669,-159.378,86.43200000000002,84,100,8.23,US,1689824002
23,Abū Kabīr,30.7251,31.6715,77.12600000000009,68,0,0.44,EG,1689824074
24,Port Isabel,26.0734,-97.2086,84.23600000000008,82,0,6.17,US,1689824075
25,Kralendijk,12.15,-68.2667,82.38200000000002,83,16,8.23,BQ,1689823872
26,Najrān,17.4924,44.1277,86.64800000000002,19,57,6.76,SA,1689824077
27,Isafjordur,66.0755,-23.124,46.544000000000075,83,23,0.25,IS,1689824077
28,Horta,38.5333,-28.6333,72.01400000000004,85,100,0.89,PT,1689823874
29,Walvis Bay,-22.9575,14.5053,52.556000000000026,85,0,1.85,NA,1689824079
30,Talnakh,69.4865,88.3972,58.208000000000006,79,100,4.53,RU,1689824079
31,Bodø,67.28,14.405,54.77000000000006,93,20,2.06,NO,1689823853
32,Puerto Ayora,-0.7393,-90.3518,77.558,96,21,1.79,EC,1689824081
33,Dudinka,69.4058,86.1778,58.622000000000035,81,99,3.42,RU,1689824081
34,Whangarei,-35.7317,174.3239,55.958000000000006,95,100,6.1,NZ,1689824082
35,High Rock,26.6208,-78.2833,80.61800000000008,78,100,6.08,BS,1689824083
36,Margaret River,-33.95,115.0667,58.46000000000008,70,88,7.54,AU,1689824084
37,Tarauacá,-8.1614,-70.7656,74.516,77,72,0.58,BR,1689824085
38,George Town,5.4112,100.3354,84.14600000000004,76,20,2.24,MY,1689823894
39,Shalya,57.2471,58.7298,63.08600000000007,86,93,3.41,RU,1689824086
40,Bassila,9.0081,1.6654,69.692,98,24,1.37,BJ,1689824087
41,Waitangi,-43.9535,-176.5597,52.82600000000009,88,100,2.68,NZ,1689824008
42,Rémire-Montjoly,4.9167,-52.2667,75.23600000000008,100,20,0.0,GF,1689824088
43,Nantucket,41.2835,-70.0995,78.85400000000006,100,0,3.09,US,1689823951
44,Kudymkar,59.0173,54.656,64.38200000000002,82,35,4.0,RU,1689824089
45,Pisco,-13.7,-76.2167,68.05400000000006,73,100,1.03,PE,1689824090
46,Alakurtti,66.9672,30.3491,56.174000000000014,98,100,2.16,RU,1689824090
47,Gulf Shores,30.246,-87.7008,85.06400000000004,78,0,0.0,US,1689824152
48,Taoudenni,22.6783,-3.9836,94.74800000000002,9,0,6.27,ML,1689824152
49,Fale old settlement,-9.3852,-171.2468,82.97600000000008,78,16,6.39,TK,1689824032
50,Queimadas,-10.9783,-39.6264,62.76200000000006,92,3,2.86,BR,1689824154
51,Paragominas,-2.9667,-47.4833,71.816,84,12,1.29,BR,1689824001
52,La Ronge,55.1001,-105.2842,70.016,56,100,1.03,CA,1689824156
53,Chui,-33.6971,-53.4616,52.772000000000034,74,100,4.73,UY,1689824156
54,Port Douglas,-16.4833,145.4667,75.72200000000004,65,73,5.86,AU,1689824157
55,Badger,64.8,-147.5333,74.13800000000005,78,100,0.0,US,1689824158
56,Aasiaat,68.7098,-52.8699,38.94800000000002,99,100,5.42,GL,1689824158
57,New Norfolk,-42.7826,147.0587,55.92200000000004,57,100,5.47,AU,1689824159
58,Jamestown,42.097,-79.2353,64.04000000000002,73,0,1.54,US,1689824160
59,Sisimiut,66.9395,-53.6735,43.82600000000009,98,100,0.92,GL,1689824161
60,Lerwick,60.1545,-1.1494,50.0,85,100,7.8,GB,1689824161
61,Hamilton,39.1834,-84.5333,75.39800000000002,90,0,2.57,US,1689824064
62,Mumbwa,-14.9783,27.0619,54.01400000000003,56,0,2.09,ZM,1689824163
63,Alaghsas,17.0187,8.0168,88.79000000000002,38,69,7.57,NE,1689824163
64,Lebu,-37.6167,-73.65,55.18399999999999,92,100,7.31,CL,1689823948
65,Qaqortoq,60.7167,-46.0333,44.51000000000008,95,100,1.48,GL,1689824165
66,Margate,51.3813,1.3862,60.314000000000036,94,5,1.4,GB,1689824165
67,Albany,42.6001,-73.9662,68.41400000000003,86,14,1.66,US,1689823801
68,Ancud,-41.8697,-73.8203,51.908,93,100,4.31,CL,1689824166
69,Laojunmiao,39.8333,97.7333,77.30600000000003,19,11,5.56,CN,1689824167
70,West Island,-12.1568,96.8225,80.58200000000002,69,40,6.69,CC,1689824168
71,Lihue,21.9789,-159.3672,87.04400000000007,79,100,8.23,US,1689824168
72,Faya-Largeau,17.9257,19.1043,82.32800000000006,64,99,9.26,TD,1689824169
73,Nikolayevsk-on-Amur,53.1406,140.73,87.42200000000004,39,75,2.66,RU,1689824170
74,San Andrés,12.5847,-81.7006,84.21800000000009,79,20,6.17,CO,1689824171
75,Merlo,-32.3429,-65.014,45.788000000000046,64,100,2.51,AR,1689823878
76,Salalah,17.0151,54.0924,77.09000000000002,100,100,3.09,OM,1689824172
77,Harper,4.375,-7.7169,76.67600000000009,88,100,4.66,LR,1689824173
78,Ilulissat,69.2167,-51.1,48.21800000000009,81,100,0.0,GL,1689824173
79,Middlesboro,36.6084,-83.7166,72.19400000000007,94,40,0.0,US,1689824174
80,Invercargill,-46.4,168.35,44.978000000000065,66,26,4.16,NZ,1689824175
81,Ust-Nera,64.5667,143.2,80.708,35,88,2.15,RU,1689824176
82,Pangkalpinang,-2.1333,106.1333,82.86800000000008,78,100,4.46,ID,1689824176
83,Bredasdorp,-34.5322,20.0403,47.33600000000007,73,73,1.56,ZA,1689824177
84,College,64.8569,-147.8028,74.21000000000008,78,75,0.0,US,1689824178
85,Ippy,6.2679,21.2247,69.17000000000006,97,100,1.21,CF,1689824179
86,Levice,48.2156,18.6071,64.36400000000003,76,43,1.03,SK,1689824179
87,Zaragoza,41.6561,-0.8773,71.02400000000002,55,0,6.69,ES,1689824009
88,Iqaluit,63.7506,-68.5145,37.13000000000004,100,100,2.06,CA,1689824181
89,Susuman,62.7833,148.1667,70.84400000000008,52,87,2.9,RU,1689824181
90,Barreirinhas,-2.7469,-42.8264,75.36200000000005,92,7,1.77,BR,1689824182
91,Tiksi,71.6872,128.8694,54.23000000000004,42,46,7.38,RU,1689824182
92,Ushuaia,-54.8,-68.3,35.258,80,0,1.03,AR,1689824015
93,Lagunillas,10.1301,-71.2595,83.44400000000007,72,31,1.22,VE,1689824184
94,Nadym,65.5333,72.5167,76.17200000000004,59,57,3.73,RU,1689824184
95,Rongelap,11.1635,166.8941,82.86800000000008,78,100,8.4,MH,1689824031
96,Heilbron,-27.2812,27.9709,47.408,83,24,7.71,ZA,1689824247
97,Quellón,-43.1167,-73.6167,53.852000000000075,94,100,4.63,CL,1689824083
98,Port Lincoln,-34.7333,135.8667,57.452000000000076,49,16,10.01,AU,1689824249
99,Smara,26.7384,-11.6719,70.73600000000008,75,1,5.92,EH,1689824249
100,Dwārka,22.2394,68.9678,83.94800000000002,79,100,6.59,IN,1689824238
101,Katsuura,35.1333,140.3,80.61800000000008,79,25,7.5,JP,1689824251
102,Ribeira Grande,38.5167,-28.7,72.77000000000007,85,100,1.34,PT,1689824251
103,Khandyga,62.6667,135.6,79.52000000000007,41,29,1.08,RU,1689824252
104,Baiti,13.745,-14.7482,78.63800000000005,87,61,3.55,SN,1689824253
105,Yarovoy,52.9273,78.58,84.41600000000001,38,6,5.56,RU,1689824253
106,Saint Paul Harbor,57.79,-152.4072,53.11400000000003,100,100,3.6,US,1689824002
107,Massawa,15.6097,39.45,94.33399999999999,47,89,0.54,ER,1689824255
108,Tyukhtet,56.5389,89.3011,77.0,38,0,5.09,RU,1689824255
109,Oriximiná,-1.7656,-55.8661,76.22600000000008,65,0,1.57,BR,1689824256
110,Mejit,10.2753,170.8646,82.61600000000001,78,100,7.7,MH,1689824257
111,Chonchi,-42.6128,-73.8092,52.80800000000001,97,100,2.35,CL,1689824257
112,Stornoway,58.2093,-6.3865,53.096000000000046,87,75,0.51,GB,1689824258
113,Mauá,-23.6678,-46.4614,60.36800000000009,91,100,2.9,BR,1689824258
114,Baharly,38.4362,57.4316,84.83000000000004,26,0,1.71,TM,1689824259
115,Al Manāqil,14.2459,32.9891,83.26400000000004,60,61,6.42,SD,1689824260
116,Queenstown,-31.8976,26.8753,38.66000000000008,70,100,2.95,ZA,1689824017
117,Manokwari,-0.8667,134.0833,82.45400000000005,77,100,2.98,ID,1689824261
118,Utrik,11.2278,169.8474,79.592,87,100,10.41,MH,1689824262
119,Piti Village,13.4626,144.6933,89.31200000000005,70,20,5.14,GU,1689824262
120,Gizo Government Station,-8.103,156.8419,81.30200000000008,80,35,5.5,SB,1689824263
121,Avarua,-21.2078,-159.775,71.65400000000005,53,14,4.12,CK,1689824263
122,Mālvan,16.0667,73.4667,79.016,87,100,9.16,IN,1689824264
123,Saldanha,-33.0117,17.9442,39.254000000000055,72,0,5.72,ZA,1689824265
124,Argos,37.6333,22.7333,80.78000000000004,36,0,2.0,GR,1689824265
125,Weno,7.4515,151.8468,87.74600000000005,74,100,3.6,FM,1689824059
126,Leones,-32.6617,-62.2968,44.40200000000008,73,100,3.64,AR,1689824267
127,Saraipali,21.3333,83.0,85.80200000000008,70,40,1.73,IN,1689824267
128,Ola,59.5833,151.2833,86.14400000000008,77,19,3.82,RU,1689824268
129,Port Elizabeth,-33.918,25.5701,48.48800000000004,93,100,2.57,ZA,1689824119
130,Vorgashor,67.5833,63.95,70.592,65,98,2.59,RU,1689824269
131,Kingston,17.997,-76.7936,85.15400000000005,76,20,7.2,JM,1689824270
132,Kucha,41.7278,82.9364,94.51400000000004,14,93,3.37,CN,1689824271
133,Neiafu,-18.65,-173.9833,75.88399999999999,73,75,6.69,TO,1689824272
134,Barabai,-2.5833,115.3833,91.13000000000004,55,14,0.53,ID,1689824272
135,Saint-Pierre,-21.3393,55.4781,71.2760000000001,64,0,4.12,RE,1689824069
136,Zunyi,27.6867,106.9072,77.28800000000004,82,98,1.94,CN,1689824273
137,Awjilah,29.1081,21.2869,78.72800000000007,33,0,4.02,LY,1689824274
138,Formosa do Rio Preto,-11.0483,-45.1931,64.50800000000001,41,3,1.83,BR,1689824275
139,Fort McMurray,56.7268,-111.381,67.58600000000007,82,0,2.06,CA,1689824276
140,Puerto Aisén,-45.4,-72.7,43.16000000000008,100,100,0.67,CL,1689824277
141,Mamou,10.5,-12.0,68.70200000000008,99,100,1.24,GN,1689824277
142,Praia da Vitória,38.7333,-27.0667,70.75400000000005,94,20,1.2,PT,1689824278
143,Sinop Province,41.7711,34.8709,67.92800000000007,61,0,1.51,TR,1689824339
144,Askøy,60.4092,5.226,54.03200000000002,50,75,2.06,NO,1689824339
145,Touros,-5.1989,-35.4608,72.48200000000001,86,8,5.82,BR,1689824020
146,Minas de Marcona,-15.2119,-75.1103,56.24600000000005,81,16,2.99,PE,1689824086
147,Xigazê,29.25,88.8833,65.642,44,11,0.9,CN,1689824343
148,Lodwar,3.1191,35.5973,77.32400000000001,58,93,4.24,KE,1689824343
149,Guerrero Negro,27.9769,-114.0611,67.78399999999999,84,2,6.93,MX,1689824344
150,Bamboo Flat,11.7,92.7167,86.09000000000002,79,100,6.17,IN,1689824051
151,Lompoc,34.6391,-120.4579,68.14400000000008,91,100,4.12,US,1689824346
152,Maceió,-9.6658,-35.7353,76.442,83,20,2.57,BR,1689824183
153,Lethem,3.3803,-59.7968,76.06400000000004,82,20,2.61,GY,1689824347
154,Selkirk,50.1436,-96.8845,66.27200000000003,87,6,3.99,CA,1689824249
155,Manaure,11.7751,-72.4445,82.65200000000007,76,81,7.39,CO,1689824349
156,Puerto Baquerizo Moreno,-0.9,-89.6,77.39600000000004,82,58,4.52,EC,1689824349
157,Enewetak,11.3474,162.3373,83.642,78,71,4.73,MH,1689824350
158,Aswān,24.0934,32.907,90.35600000000002,18,0,2.94,EG,1689824351
159,Thompson,55.7435,-97.8558,66.36200000000005,68,75,0.0,CA,1689824352
160,Myeik,12.4333,98.6,80.11400000000003,84,85,4.77,MM,1689824353
161,Kirensk,57.7853,108.1119,77.61200000000005,41,17,1.17,RU,1689824084
162,Puerto Quijarro,-17.7833,-57.7667,65.80400000000006,64,0,1.45,BO,1689824354
163,Ghadames,30.1337,9.5007,84.95600000000003,24,0,5.24,LY,1689824355
164,Saipan,15.1355,145.701,90.30200000000008,100,40,5.14,MP,1689824355
165,Egilsstadir,65.2653,-14.3948,33.71000000000008,93,40,2.06,IS,1689824356
166,Mount Gambier,-37.8333,140.7667,53.312000000000054,79,78,6.61,AU,1689824357
167,Preobrazheniye,42.9019,133.9064,72.41000000000008,79,83,2.58,RU,1689824357
168,Natal,-5.795,-35.2094,73.61600000000001,94,20,3.09,BR,1689824358
169,Kerikeri,-35.2268,173.9474,58.91000000000008,91,100,2.24,NZ,1689824148
170,Longyearbyen,78.2186,15.6401,49.838000000000044,76,0,1.54,SJ,1689824359
171,Taltal,-25.4,-70.4833,63.01400000000003,68,100,1.74,CL,1689824360
172,Marsabit,2.3284,37.9899,60.17000000000006,82,60,5.68,KE,1689824361
173,Madalena,41.2162,-8.3345,60.458000000000006,94,30,0.8,PT,1689824361
174,Tazovsky,67.4667,78.7,60.74600000000005,95,100,4.75,RU,1689824084
175,Olonkinbyen,70.9221,-8.7187,40.891999999999996,90,54,3.65,SJ,1689824363
176,Codrington,-38.2667,141.9667,47.28200000000002,90,100,6.87,AU,1689824009
177,Mogok,22.9167,96.5,70.82600000000009,95,100,0.35,MM,1689824364
178,Uliastai,47.7417,96.8444,74.91200000000006,27,73,1.45,MN,1689824365
179,Udachny,66.4167,112.4,64.45400000000005,63,99,4.19,RU,1689824365
180,Tupiza,-21.45,-65.7167,50.378000000000064,11,27,2.46,BO,1689824366
181,Emerald,-23.5333,148.1667,73.79600000000005,32,2,4.24,AU,1689824367
182,Ta`ū,-14.2336,-169.5144,79.73600000000008,77,100,11.28,AS,1689824368
183,Changji,44.0167,87.3167,97.592,23,0,5.0,CN,1689824109
184,Vadsø,70.0744,29.7487,49.082000000000015,93,100,8.75,NO,1689824369
185,Tamanghasset,22.785,5.5228,80.51000000000008,12,0,5.14,DZ,1689824371
186,Altay,47.8667,88.1167,89.18600000000006,16,1,2.97,CN,1689824371
187,Kasane,-17.8167,25.15,50.09000000000002,53,0,2.57,BW,1689824372
188,Province of Trapani,37.8333,12.6667,68.09000000000002,60,0,2.57,IT,1689824373
189,Turpan,42.9333,89.1667,107.56400000000004,8,54,2.2,CN,1689824374
190,Koné,-21.0595,164.8658,71.74400000000007,67,89,4.75,NC,1689824435
191,Tôlanaro,-25.0319,46.9987,66.27200000000003,94,75,0.0,MG,1689824010
192,Hithadhoo,-0.6,73.0833,82.99400000000007,75,29,7.35,MV,1689824436
193,Phalaborwa,-23.943,31.1411,61.88000000000004,68,100,6.8,ZA,1689824437
194,Quebo,11.3333,-14.9333,75.47000000000006,95,96,1.22,GW,1689824437
195,Dubbo,-32.25,148.6167,60.92600000000009,36,40,5.66,AU,1689824438
196,Chinde,26.8418,88.0763,77.0,72,60,2.27,NP,1689824439
197,Anadyr,64.75,177.4833,63.104000000000056,67,40,5.0,RU,1689824439
198,Turbat,26.0023,63.044,87.04400000000007,70,88,2.94,PK,1689824440
199,San Patricio,28.017,-97.5169,84.84800000000003,82,0,6.79,US,1689824441
200,Papao,-17.75,-149.55,74.87600000000009,72,99,9.1,PF,1689824441
201,Hasaki,35.7333,140.8333,86.39600000000004,88,99,6.12,JP,1689824442
202,Carnarvon,-24.8667,113.6333,62.852000000000075,37,0,8.78,AU,1689824443
203,Nogliki,51.8333,143.1667,60.530000000000044,85,100,4.87,RU,1689824443
204,Teykovo,56.858,40.5369,57.72200000000004,80,90,5.05,RU,1689824445
205,Babu,24.4167,111.5167,89.708,67,82,1.35,CN,1689824445
206,Chul'man,56.8479,124.9104,49.694000000000074,93,100,3.04,RU,1689824446
207,Cidreira,-30.1811,-50.2056,58.38800000000005,75,76,7.95,BR,1689824447
208,Tobruk,32.0836,23.9764,78.33200000000002,80,0,3.65,LY,1689824447
209,Jiamusi,46.8333,130.35,85.51400000000004,56,71,2.51,CN,1689824448
210,Bangar,16.8936,120.4243,87.674,70,41,2.95,PH,1689824448
211,Saint-Philippe,-21.3585,55.7679,71.18600000000006,87,43,5.35,RE,1689824449
212,Polyarny,69.1989,33.4478,51.58399999999999,94,100,8.03,RU,1689824349
213,Naberera,-4.2,36.9333,53.81600000000001,97,61,0.75,TZ,1689824450
214,Dāmghān,36.1683,54.348,80.74400000000007,41,1,0.75,IR,1689824452
215,Krasnyy Yar,46.5331,48.3456,74.96600000000001,65,26,3.9,RU,1689824452
216,Gaogou,34.0175,119.1886,75.03800000000004,94,100,2.87,CN,1689824453
217,Kristiansund,63.1115,7.732,52.44800000000002,87,100,1.54,NO,1689824454
218,Gadzhiyevo,69.2551,33.3362,51.26000000000008,93,100,8.22,RU,1689824454
219,Geraldton,-28.7667,114.6,59.41400000000003,58,76,5.14,AU,1689824455
220,Tofol,5.3248,163.0078,82.02200000000003,78,100,4.11,FM,1689824455
221,Manay,7.215,126.5397,84.07400000000001,78,47,2.93,PH,1689824456
222,Hermanus,-34.4187,19.2345,50.05400000000005,71,21,5.01,ZA,1689824457
223,Machico,32.7,-16.7667,70.43000000000004,80,40,3.6,PT,1689824459
224,Kindu,-2.95,25.95,75.12800000000007,61,99,1.16,CD,1689824459
225,Nova Sintra,14.8667,-24.7167,73.11200000000005,83,97,1.78,CV,1689824460
226,Poronaysk,49.2167,143.1167,61.28600000000007,86,91,4.49,RU,1689824461
227,Whittlesea,-32.1759,26.8244,38.498000000000026,71,99,3.3,ZA,1689824461
228,Takoradze,4.8845,-1.7554,75.542,93,45,3.86,GH,1689824186
229,Luancheng,37.8792,114.6517,91.56200000000005,30,65,4.04,CN,1689824463
230,Cologne,50.9333,6.95,61.44800000000002,82,20,2.57,DE,1689824460
231,Bardai,11.65,7.2333,72.05,85,82,2.09,NG,1689824464
232,Alofi,-19.0595,-169.9187,75.092,57,40,5.66,NU,1689824464
233,Port Mathurin,-19.6833,63.4167,74.57000000000006,59,0,8.71,MU,1689824465
234,Phan Thiet,10.9333,108.1,89.96000000000008,58,96,4.81,VN,1689824466
235,Korla,41.7597,86.1469,95.95400000000005,13,15,3.04,CN,1689824466
236,Mweka,-4.85,21.5667,66.90200000000007,40,30,0.65,CD,1689824527
237,Codajás,-3.8367,-62.0569,78.31400000000004,60,90,0.54,BR,1689824528
238,Mar del Plata,-38.0023,-57.5575,47.08399999999999,78,0,4.12,AR,1689824528
239,Russellville,35.2784,-93.1338,86.99000000000002,66,0,0.0,US,1689824529
240,Selsey,50.735,-0.7898,59.73800000000004,92,18,2.86,GB,1689824530
241,Yiyang,28.5892,112.3283,91.70600000000003,62,99,2.47,CN,1689824530
242,Burang,30.25,81.1667,59.288000000000046,64,85,1.66,CN,1689824531
243,Iskateley,67.6803,53.1512,63.338000000000044,67,91,7.73,RU,1689824532
244,Makuyuni,-4.7333,38.1,62.978000000000065,88,7,1.08,TZ,1689824532
245,Harstad,68.799,16.5293,53.15,100,100,4.47,NO,1689824533
246,Kayar,14.9192,-17.1211,81.55400000000006,80,14,3.16,SN,1689824534
247,Naryan-Mar,67.6713,53.087,63.320000000000064,67,94,7.78,RU,1689824535
248,Whitehorse,60.7161,-135.0538,75.02000000000007,30,75,5.66,CA,1689824536
249,River Cess,5.46,-9.5828,76.28000000000004,92,100,3.27,LR,1689824536
250,Tyul'gan,52.3405,56.166,64.34600000000005,84,98,4.02,RU,1689824537
251,Callao,-12.0667,-77.15,70.71800000000009,73,100,5.66,PE,1689824246
252,Sol'-Iletsk,51.1631,54.9918,69.13399999999999,65,99,5.52,RU,1689824538
253,Jhābua,22.7667,74.6,84.74000000000002,74,41,1.75,IN,1689824539
254,Lüderitz,-26.6481,15.1594,54.320000000000064,55,71,7.01,NA,1689824540
255,Kangding,30.0513,101.9603,71.816,60,100,2.54,CN,1689824540
256,Hultsfred,57.4882,15.8436,50.39600000000005,88,28,3.14,SE,1689824541
257,Freetown,8.484,-13.2299,77.0,86,69,2.22,SL,1689824542
258,Wendell,35.781,-78.3697,79.21400000000003,94,73,1.15,US,1689824543
259,Uturoa,-16.7333,-151.4333,77.25200000000008,69,100,9.96,PF,1689824543
260,İnebolu,41.9747,33.7608,73.47200000000004,53,0,2.19,TR,1689824544
261,Bushehr,28.9684,50.8385,91.49000000000002,58,8,0.0,IR,1689824545
262,Salahonda,2.1019,-78.7217,81.82400000000001,84,52,3.89,CO,1689824545
263,Kitimat,54.0524,-128.6534,75.57800000000006,68,98,1.79,CA,1689824546
264,Constanța,44.1833,28.65,74.08399999999999,67,1,3.78,RO,1689824282
265,Nagqu Prefecture,31.5,92.0,55.67000000000006,44,4,3.24,CN,1689824548
266,São Félix do Xingu,-6.6447,-51.995,69.8,52,19,0.69,BR,1689824549
267,Lodja,-3.4833,23.4333,70.07000000000006,46,94,0.44,CD,1689824550
268,Arraial do Cabo,-22.9661,-42.0278,66.95600000000003,80,100,6.02,BR,1689824550
269,Wuchang,44.9143,127.15,83.12000000000006,72,35,3.13,CN,1689824551
270,Sault Ste. Marie,46.5168,-84.3333,64.68800000000005,89,100,2.06,CA,1689824515
271,Åkrehamn,59.2667,5.1833,54.41000000000008,87,40,8.75,NO,1689824553
272,Maiyama,12.0841,4.3677,76.98200000000001,78,99,4.59,NG,1689824553
273,Abqaiq,25.9371,49.6776,97.75400000000005,11,24,3.52,SA,1689824554
274,Vila Franca do Campo,37.7167,-25.4333,66.61400000000003,90,98,1.06,PT,1689824555
275,Bukhara,39.7747,64.4286,80.54600000000005,39,0,5.14,UZ,1689824555
276,Tostado,-29.232,-61.7692,46.97600000000009,71,20,3.73,AR,1689824556
277,St. John's,47.5649,-52.7093,72.78800000000004,94,75,8.75,CA,1689824552
278,Kudat,6.8837,116.8477,87.72800000000007,66,20,3.6,MY,1689824558
279,Tūkrah,32.5341,20.5791,79.05200000000008,89,0,2.32,LY,1689824559
280,Tsiombe,-25.3,45.4833,63.662000000000056,97,22,1.79,MG,1689824560
281,Inarajan Village,13.2736,144.7484,89.40200000000007,80,100,6.2,GU,1689824560
282,Holualoa,19.6228,-155.9522,82.23800000000004,85,40,5.66,US,1689824561
283,Newman,37.3138,-121.0208,89.83399999999999,36,0,3.35,US,1689824608
284,Cloquet,46.7216,-92.4594,60.188000000000045,95,100,2.06,US,1689824623
285,Finisterra,42.9049,-9.2629,61.754000000000055,89,63,5.15,ES,1689824623
286,Belyy Yar,53.6039,91.3903,75.092,57,0,2.0,RU,1689824624
287,Nemuro,43.3236,145.575,59.54000000000002,90,76,3.63,JP,1689824625
288,Happy Valley-Goose Bay,53.3168,-60.3315,64.70600000000003,94,20,2.06,CA,1689824626
289,Pochep,52.9336,33.4464,57.30800000000001,76,69,3.18,RU,1689824626
290,Karratha,-20.7377,116.8463,76.78399999999999,34,31,7.88,AU,1689824627
291,Chamdo,31.1667,97.2333,55.94000000000002,45,23,2.37,CN,1689824628
292,Portland,45.5234,-122.6762,91.38200000000002,42,20,5.14,US,1689824582
293,Yulinshi,38.2906,109.7494,85.06400000000004,36,75,6.07,CN,1689824629
294,Kalmunai,7.4167,81.8167,89.49199999999999,48,94,2.86,LK,1689824630
295,Key Largo,25.0865,-80.4473,84.99199999999999,71,100,5.49,US,1689824630
296,Heihe,50.2441,127.4902,75.7760000000001,60,76,4.41,CN,1689824631
297,La Passe,45.5549,-0.8967,62.978000000000065,87,41,2.44,FR,1689824632
298,Puan,35.7281,126.7319,82.292,69,99,2.09,KR,1689824633
299,Pittsfield,42.4501,-73.2454,66.79400000000007,84,75,0.0,US,1689824634
300,Suriāpet,17.15,79.6167,77.18000000000004,80,100,7.01,IN,1689824634
301,Camacupa,-12.0167,17.4833,54.266000000000005,52,0,0.97,AO,1689824635
302,Hobyo,5.3505,48.5268,77.09000000000002,80,40,10.13,SO,1689824635
303,Almeirim,-1.5233,-52.5817,77.50400000000005,72,79,1.19,BR,1689824636
304,Tocopilla,-22.092,-70.1979,64.54400000000007,66,62,0.5,CL,1689824637
305,Al Hadā,21.3675,40.2869,76.38800000000005,16,63,0.77,SA,1689824638
306,East London,-33.0153,27.9116,49.13600000000007,81,40,4.63,ZA,1689824496
307,Antofagasta,-23.65,-70.4,61.88000000000004,73,61,1.06,CL,1689824639
308,Lā‘ie,21.6477,-157.9253,80.56400000000004,81,100,1.79,US,1689824640
309,El Rosario,24.2556,-107.1828,82.86800000000008,73,5,0.59,MX,1689824641
310,Cedeira,43.6797,-8.0209,62.38399999999999,86,45,1.81,ES,1689824641
311,Nasir,15.5894,32.5634,88.68200000000002,45,89,7.5,SD,1689824642
312,Barkly West,-28.5354,24.5215,29.48000000000004,60,0,4.6,ZA,1689824643
313,Formosa,-26.1775,-58.1781,57.182000000000016,85,0,0.0,AR,1689824644
314,Tual,-5.6667,132.75,79.50200000000008,80,25,8.43,ID,1689824644
315,Diego de Almagro,-26.3667,-70.05,60.944000000000074,22,100,0.94,CL,1689824489
316,Adamovka,51.5223,59.9396,67.35200000000007,73,96,4.71,RU,1689824646
317,Vilhena,-12.7406,-60.1458,67.24400000000007,54,1,0.99,BR,1689824404
318,Kamina,-8.7386,24.9906,59.342,39,6,1.68,CD,1689824647
319,Bidur,4.1167,101.2833,81.19400000000007,86,99,0.84,MY,1689824648
320,Eha Amufu,6.6592,7.7596,74.08399999999999,96,100,1.33,NG,1689824648
321,Tazacorte,28.629,-17.9293,72.57200000000003,63,100,6.69,ES,1689824649
322,Tāfuna,-14.3358,-170.72,82.34600000000005,83,75,8.75,AS,1689824650
323,Greenville,35.6127,-77.3663,77.03600000000007,95,0,0.89,US,1689824650
324,Waterloo,43.4668,-80.5164,65.73200000000001,88,0,0.0,CA,1689824651
325,Kayenta,36.7278,-110.2546,85.51400000000004,15,38,5.2,US,1689824652
326,Haiku-Pauwela,20.9219,-156.3051,77.50400000000005,86,75,9.26,US,1689824652
327,Penzance,50.1186,-5.5371,54.28399999999999,79,59,3.14,GB,1689824445
328,Al Ghayzah,16.2079,52.176,78.85400000000006,85,93,1.97,YE,1689824654
329,Deqing,30.5448,119.9599,82.27400000000002,87,100,1.35,CN,1689824654
330,Aykhal,66.0,111.5,67.13600000000007,53,97,5.15,RU,1689824655
331,Souk Ahras,36.2864,7.9511,80.49199999999999,22,0,1.37,DZ,1689824716
332,Atar,20.5169,-13.0499,88.16000000000008,44,56,4.11,MR,1689824717
333,Merizo Village,13.2658,144.6691,88.98800000000004,80,100,6.35,GU,1689824717
334,Zuidhorn,53.2467,6.4028,54.95,94,1,1.54,NL,1689824718
335,Al Mindak,20.1588,41.2834,74.80400000000006,19,98,2.53,SA,1689824719
336,Ulladulla,-35.35,150.4667,64.76000000000008,25,99,4.04,AU,1689824720
337,Fernley,39.608,-119.2518,85.1,32,66,2.31,US,1689824621
338,Aleksandrovsk-Sakhalinskiy,50.8975,142.1561,68.93600000000006,77,100,2.84,RU,1689824721
339,Linxia Chengguanzhen,35.6003,103.2064,74.22800000000007,49,8,0.52,CN,1689824722
340,Iquique,-20.2208,-70.1431,64.43600000000006,77,46,0.92,CL,1689824639
341,Tavda,58.0425,65.2726,69.81800000000008,72,27,1.86,RU,1689824724
342,El Calafate,-50.3408,-72.2768,35.07800000000007,90,90,0.88,AR,1689824725
343,Suva,-18.1416,178.4415,80.07800000000006,74,75,5.14,FJ,1689824725
344,Manado,1.487,124.8455,92.174,55,20,6.17,ID,1689824726
345,Flying Fish Cove,-10.4217,105.6791,80.2760000000001,69,75,7.72,CX,1689824727
346,Tutóia,-2.7619,-42.2744,77.12600000000009,88,11,2.33,BR,1689824727
347,Choix,26.7092,-108.3219,87.15200000000007,72,35,1.57,MX,1689824728
348,Konstantinovsk,47.5828,41.0922,67.91000000000008,51,3,1.89,RU,1689824592
349,Estevan,49.1334,-102.9842,62.79800000000002,82,75,3.09,CA,1689824496
350,Greymouth,-42.4667,171.2,52.12400000000001,76,97,5.83,NZ,1689824731
351,Dongcun,36.7767,121.1597,83.10200000000007,57,100,3.93,CN,1689824731
352,Santa Elena de Uairen,4.6167,-61.1333,66.29000000000002,90,58,0.87,VE,1689824733
353,Ajra,16.1167,74.2,70.30400000000006,96,100,4.64,IN,1689824735
354,Anchorage,61.2181,-149.9003,58.92800000000007,92,100,3.6,US,1689824469
355,Crane,31.3974,-102.3501,89.74400000000007,25,4,8.52,US,1689824498
356,Kailua-Kona,19.6406,-155.9956,85.96400000000003,85,40,5.66,US,1689824736
357,Phan Rang-Thap Cham,11.5667,108.9833,89.58200000000002,56,100,3.02,VN,1689824737
358,Mount Pearl,47.5166,-52.7813,71.942,94,75,8.75,CA,1689824738
359,Berrotarán,-32.451,-64.3887,42.22400000000001,60,100,4.23,AR,1689824738
360,Salinópolis,-0.6136,-47.3561,78.47600000000008,83,14,3.76,BR,1689824739
361,Kill Devil Hills,36.0307,-75.676,78.98000000000005,86,0,5.66,US,1689824740
362,Villanueva,15.3167,-88.0,81.59000000000002,83,75,3.09,HN,1689824579
363,Ulsteinvik,62.3432,5.8487,53.312000000000054,92,100,0.45,NO,1689824741
364,Springbok,-29.6643,17.8865,38.89400000000008,56,0,8.73,ZA,1689824742
365,Lázaro Cárdenas,17.9583,-102.2,82.77800000000006,83,100,2.05,MX,1689824742
366,Malpica,43.3228,-8.8105,63.338000000000044,93,60,2.15,ES,1689824743
367,Nizhnesortymskiy,62.4397,71.7603,73.34600000000005,61,100,5.34,RU,1689824743
368,Novosokol'niki,56.3463,30.1578,56.372000000000035,72,88,3.13,RU,1689824744
369,Funafuti,-8.5243,179.1942,89.6,74,40,3.09,TV,1689824745
370,Mokhsogollokh,61.4681,128.9203,54.75200000000008,90,100,3.35,RU,1689824745
371,Ormara,25.2088,64.6357,82.68800000000005,82,100,3.54,PK,1689824746
372,Port Alfred,-33.5906,26.891,53.564000000000036,71,84,5.91,ZA,1689824747
373,Kabalo,-6.05,26.9167,71.85200000000007,44,98,1.65,CD,1689824747
374,Florø,61.5996,5.0328,51.872000000000035,93,100,1.03,NO,1689824748
375,Aliwal North,-30.6937,26.7114,34.214000000000034,78,7,8.84,ZA,1689824749
376,Wanning,18.8003,110.3967,87.42200000000004,71,96,3.35,CN,1689824749
377,Grand Falls-Windsor,48.9332,-55.6649,74.49800000000002,85,91,0.45,CA,1689824750
378,Enoch,37.7733,-113.0244,80.85200000000007,41,0,5.66,US,1689824750
379,South Venice,27.0531,-82.4243,80.63600000000007,95,0,0.89,US,1689824812
380,Serrinha,-11.6642,-39.0075,60.314000000000036,92,4,2.26,BR,1689824813
381,Shitanjing,39.2342,106.3439,83.53399999999999,26,51,8.6,CN,1689824814
382,Clarinda,40.7419,-95.0383,77.32400000000001,100,0,0.0,US,1689824814
383,Dunedin,-45.8742,170.5036,47.80400000000005,55,66,1.34,NZ,1689824721
384,Timbuktu,16.7735,-3.0074,92.24600000000005,38,2,9.21,ML,1689824816
385,Hirado,33.3597,129.5531,78.08000000000004,80,100,4.31,JP,1689824817
386,Malango,-2.9627,119.9001,81.24800000000002,61,29,1.88,ID,1689824818
387,Labrador City,52.9463,-66.9114,53.51000000000008,87,40,3.09,CA,1689824818
388,Iringa,-7.7667,35.7,51.11600000000001,76,20,0.0,TZ,1689824819
389,Aktau,43.65,51.2,75.7760000000001,53,0,4.09,KZ,1689824819
390,Angleton,29.1694,-95.4319,84.12800000000007,89,0,3.6,US,1689824820
391,North Bondi,-33.8824,151.2769,67.208,38,0,4.63,AU,1689824821
392,Sakaiminato,35.55,133.2333,84.12800000000007,69,40,3.09,JP,1689824822
393,Chake Chake,-5.2459,39.7666,73.92200000000004,82,19,4.23,TZ,1689824822
394,Mossamedes,-15.1961,12.1522,59.360000000000085,87,0,0.86,AO,1689824823
395,Kruisfontein,-34.0033,24.7314,45.878000000000064,87,76,0.13,ZA,1689824824
396,Toliara,-23.35,43.6667,65.91200000000006,85,49,3.34,MG,1689824824
397,Prince Rupert,54.3161,-130.3201,62.69000000000002,93,75,2.57,CA,1689824688
398,Sofo-Birnin-Gwari,11.0154,6.7804,70.55600000000003,93,99,1.73,NG,1689824826
399,Ampanihy,-24.7,44.75,61.39400000000008,97,33,1.13,MG,1689824827
400,Khovd,48.0056,91.6419,82.958,23,3,1.44,MN,1689824827
401,Okhotsk,59.3833,143.3,68.27000000000007,63,82,4.44,RU,1689824828
402,Atafu Village,-8.5421,-172.5159,82.59800000000003,79,51,6.06,TK,1689824829
403,Kapaa,22.0752,-159.319,87.78200000000001,84,100,8.23,US,1689824830
404,Egersund,58.4513,5.9997,53.38399999999999,90,96,7.23,NO,1689824831
405,Rundu,-17.9333,19.7667,50.162000000000056,39,0,2.52,NA,1689824807
406,São Bento,-6.2833,-37.75,68.57600000000009,76,62,5.68,BR,1689824832
407,Arawa,-6.2132,155.5367,81.57200000000003,81,100,1.17,PG,1689824833
408,Hadibu,12.65,54.0333,77.46800000000009,79,100,11.99,YE,1689824833
409,Verkhniy Baskunchak,48.2256,46.7217,73.16600000000001,48,19,2.22,RU,1689824834
410,Sabang,5.8933,95.3214,84.092,75,99,10.66,ID,1689824835
411,Vernon,50.2581,-119.2691,86.36000000000008,34,2,0.51,CA,1689824835
412,Naze,28.3667,129.4833,76.11800000000008,73,86,5.02,JP,1689824836
413,Hailey,43.5196,-114.3153,72.87800000000007,40,0,4.12,US,1689824837
414,Youssoufia,32.2463,-8.5294,70.55600000000003,75,4,3.78,MA,1689824837
415,Gargaliánoi,37.0667,21.6333,77.36000000000008,54,0,0.99,GR,1689824838
416,Dryden,49.7833,-92.7503,59.288000000000046,100,100,2.06,CA,1689824840
417,Kalix,65.853,23.1565,55.72400000000001,95,99,2.57,SE,1689824841
418,Eilat,29.5581,34.9482,85.83800000000005,35,0,2.57,IL,1689824841
419,Anka,12.1138,5.9243,74.89400000000008,84,97,2.75,NG,1689824842
420,Igrim,63.1906,64.4162,64.50800000000001,91,100,2.9,RU,1689824843
421,Aleksandrovsk,59.158,57.5624,68.792,98,50,3.16,RU,1689824844
422,Makungu,-8.7333,35.2833,52.84400000000007,95,29,1.3,TZ,1689824845
423,Selfoss,63.9331,-20.9971,52.05200000000008,81,81,2.8,IS,1689824845
424,Isangel,-19.55,169.2667,75.308,88,75,0.0,VU,1689824847
425,Knyaze-Volkonskoye,48.4642,135.4567,86.342,41,6,3.61,RU,1689824907
426,Cockburn Town,21.4612,-71.1419,82.83200000000002,84,34,10.37,TC,1689824908
427,Gamay,12.3854,125.2979,85.19000000000003,75,100,2.53,PH,1689824910
428,Nicoya,10.1483,-85.452,77.77400000000002,85,7,2.78,CR,1689824911
429,Minot,48.2325,-101.2963,68.108,72,75,3.6,US,1689824911
430,Kolondiéba,11.0882,-6.8926,75.07400000000001,89,98,2.17,ML,1689824912
431,Ulaangom,49.9811,92.0667,82.13000000000004,29,81,1.59,MN,1689824913
432,Kayangel,8.0823,134.7173,83.44400000000007,79,98,11.0,PW,1689824913
433,Afaahiti,-17.75,-149.2833,73.27400000000002,73,95,10.86,PF,1689824914
434,Severo-Yeniseyskiy,60.3725,93.0408,75.50600000000003,32,99,1.26,RU,1689824915
435,Igarka,67.4667,86.5833,66.05600000000003,83,89,5.25,RU,1689824915
436,Llorente,11.4119,125.5458,80.07800000000006,88,100,1.02,PH,1689824916
437,Lexington,37.9887,-84.4777,76.11800000000008,81,100,2.57,US,1689824675
438,Trincomalee,8.5711,81.2335,86.03600000000007,66,100,9.16,LK,1689824917
439,Tabou,4.423,-7.3528,76.37000000000006,89,96,4.5,CI,1689824918
440,Bāsawul,34.2475,70.8722,88.64600000000004,60,97,1.91,AF,1689824918
441,General Villegas,-35.0328,-63.0125,44.42000000000006,70,100,6.14,AR,1689824919
442,Porto Belo,-27.1578,-48.5531,59.162000000000056,83,100,1.63,BR,1689824920
443,Esim,4.8699,-2.2405,75.79400000000007,92,63,4.02,GH,1689824921
444,Nouadhibou,20.931,-17.0347,71.58200000000002,88,39,5.66,MR,1689824922
445,Petropavlovsk-Kamchatskiy,53.0452,158.6483,61.39400000000008,77,75,6.0,RU,1689824922
446,Pavlogradka,54.2024,73.5592,78.44000000000003,45,10,3.83,RU,1689824923
447,Keflavik,64.0049,-22.5624,52.23200000000001,87,75,2.06,IS,1689824925
448,Taulaga,-11.0553,-171.0883,82.70600000000003,75,19,6.02,AS,1689824925
449,Popondetta,-8.7537,148.2534,80.2760000000001,74,90,2.35,PG,1689824926
450,Yanbu,24.0891,38.0637,84.23600000000008,84,0,4.12,SA,1689824927
451,Pacific Grove,36.6177,-121.9166,61.214000000000034,91,100,3.09,US,1689824927
452,Cambridge,43.3601,-80.3127,68.14400000000008,86,0,0.0,CA,1689824335
453,Benghazi,32.1167,20.0667,80.67200000000004,81,0,4.61,LY,1689824761
454,Usinsk,65.9939,57.5281,73.50800000000001,60,4,1.5,RU,1689824929
455,Tangalle,6.024,80.7911,87.96200000000006,75,95,6.81,LK,1689824681
456,Amga,60.8953,131.9608,80.51000000000008,47,5,2.07,RU,1689824930
457,Silsbee,30.3491,-94.178,85.74800000000002,86,0,0.89,US,1689824931
458,Danjiangkou,32.5428,111.5086,91.83200000000002,55,98,0.74,CN,1689824932
459,Hassi Messaoud,31.6804,6.0729,87.65600000000003,14,0,2.06,DZ,1689824933
460,Sterzing,46.8925,11.4301,59.09000000000002,94,36,2.62,IT,1689824933
461,Ayr,55.4627,-4.6339,51.314000000000036,87,0,1.03,GB,1689824934
462,Ishigaki,24.3448,124.1572,87.92600000000009,70,75,4.12,JP,1689824934
463,Angoche,-16.2325,39.9086,71.47400000000002,81,0,1.55,MZ,1689824935
464,Conceição da Barra,-18.5933,-39.7322,72.158,79,100,1.1,BR,1689824936
465,Cannonvale,-20.2833,148.7,69.18800000000005,57,80,6.35,AU,1689824936
466,Hammerfest,70.6634,23.6821,46.85,93,100,3.6,NO,1689824937
467,Oamaru,-45.0784,170.9801,44.38399999999999,91,100,2.79,NZ,1689824938
468,Trairi,-3.2778,-39.2689,78.08000000000004,79,7,5.19,BR,1689824939
469,Al Jawf,29.5,38.75,80.22200000000004,26,0,4.22,SA,1689824940
470,Quryq,43.2,51.65,78.81800000000008,48,0,3.63,KZ,1689824941
471,Coahuayana de Hidalgo,18.7,-103.6583,80.54600000000005,84,100,0.82,MX,1689824942
472,Carora,10.1755,-70.0827,76.85600000000002,70,1,4.8,VE,1689824943
473,Kyabé,9.4515,18.9449,73.31000000000009,81,100,1.95,TD,1689825003
474,Newport,51.5877,-2.9984,53.96000000000008,89,8,1.23,GB,1689824957
475,Grand-Lahou,5.1367,-5.0242,75.48800000000004,93,99,3.82,CI,1689825005
476,Nozhay-Yurt,43.0933,46.3786,71.87000000000006,62,2,1.82,RU,1689825006
477,San Pedro Pochutla,15.7333,-96.4667,81.71600000000001,83,36,2.06,MX,1689825007
478,Acaraú,-2.8856,-40.12,77.81000000000009,82,13,6.47,BR,1689825007
479,Mpika,-11.8343,31.4529,52.43000000000004,75,0,2.28,ZM,1689825008
480,Howard Springs,-12.497,131.047,87.81800000000008,25,34,1.09,AU,1689825009
481,Mitsamiouli,-11.3847,43.2844,73.68800000000005,68,75,2.06,KM,1689825009
482,Wuwei,37.9281,102.6414,86.61200000000005,17,21,9.1,CN,1689825010
483,Arnö,60.1167,18.6333,52.214000000000034,85,94,2.74,SE,1689825011
484,Tarazona,41.9,-1.7333,62.42000000000006,76,0,1.65,ES,1689825012
485,Jaru,-10.4389,-62.4664,73.16600000000001,54,27,1.11,BR,1689825014
486,Pangody,65.85,74.4859,75.45200000000008,62,72,4.22,RU,1689825015
487,Caringin,-6.7061,106.8214,88.28600000000007,46,44,0.36,ID,1689825015
488,Thabazimbi,-24.5917,27.4116,50.93600000000007,44,0,1.61,ZA,1689825016
489,Puerto Ayacucho,5.6639,-67.6236,74.44400000000007,92,91,0.78,VE,1689825017
490,Miles City,46.4083,-105.8406,72.57200000000003,43,0,4.63,US,1689825018
491,El Porvenir,13.7617,-87.3458,79.934,70,23,2.8,HN,1689825018
492,Tākestān,36.0696,49.6959,68.12600000000009,66,6,3.58,IR,1689825019
493,Cabo San Lucas,22.8909,-109.9124,94.29800000000003,63,91,3.13,MX,1689825020
494,Rapid City,44.0805,-103.231,73.292,51,0,4.63,US,1689825001
495,Bumba,2.1833,22.4667,71.13200000000002,94,89,1.47,CD,1689825021
496,Vilyuchinsk,52.9306,158.4028,62.87000000000006,87,91,2.88,RU,1689825022
497,Akureyri,65.6835,-18.0878,42.728000000000065,93,100,0.0,IS,1689825022
498,Monze,-16.2833,27.4833,53.492,50,0,2.32,ZM,1689825023
499,Sinabang,2.4803,96.3801,76.51400000000004,87,100,1.26,ID,1689825024
500,Woolgoolga,-30.1106,153.2007,66.03800000000004,39,0,3.44,AU,1689825025
501,Jianshui,23.6363,102.8264,75.27200000000003,81,92,1.47,CN,1689825025
502,Shubarshi,48.5872,57.1869,80.13200000000002,42,76,5.86,KZ,1689825026
503,Chania,35.5122,24.0156,76.60400000000006,69,0,2.06,GR,1689825027
504,Ubari,26.5921,12.7805,78.85400000000006,31,1,3.31,LY,1689825027
505,Sheridan,44.8333,-106.9173,67.69400000000007,58,0,1.54,US,1689825028
506,Działoszyn,51.117,18.8652,58.748000000000026,71,100,4.17,PL,1689825029
507,Kiunga,-6.1219,141.2906,83.84000000000002,64,81,1.66,PG,1689825030
508,Pahrump,36.2083,-115.9839,100.45400000000005,20,0,1.34,US,1689824967
509,Tsumeb,-19.2333,17.7167,55.94000000000002,20,0,4.03,NA,1689825031
510,Sauðarkrokur,65.7461,-19.6394,43.10600000000003,84,17,0.29,IS,1689825032
511,Zabul Province,32.25,67.25,83.58800000000005,26,100,0.94,AF,1689825032
512,Kharp,66.8014,65.8081,71.33000000000004,76,73,2.54,RU,1689825033
513,Pontes e Lacerda,-15.2261,-59.3353,64.63399999999999,67,0,1.32,BR,1689825034
514,Topki,55.2769,85.6163,75.00200000000008,52,99,3.14,RU,1689825034
515,Vetluga,57.8557,45.781,57.32600000000009,96,100,4.14,RU,1689825035
516,Zeribet el Oued,34.6828,6.5111,94.208,12,4,3.89,DZ,1689825036
517,Suihua,46.6406,126.9969,82.79600000000005,65,88,2.68,CN,1689825036
518,Howrah,22.5892,88.3103,87.8,79,40,4.12,IN,1689825037
519,Thunder Bay,48.4001,-89.3168,57.182000000000016,94,100,3.6,CA,1689824942
520,Pyn U Lwin,22.0333,96.4667,70.82600000000009,91,100,0.81,MM,1689825039
521,Chhor,25.5167,69.7667,88.95200000000008,59,100,3.26,PK,1689825100
522,San Juan Bautista,-14.0108,-75.7358,65.21000000000008,71,0,0.6,PE,1689825101
523,Ciudad de Chiautla de Tapia,18.2981,-98.6053,76.17200000000004,52,49,2.51,MX,1689825102
524,Rome,43.2128,-75.4557,63.662000000000056,86,0,0.0,US,1689825104
525,Kyshtovka,56.555,76.6271,66.07400000000001,87,100,3.6,RU,1689825105
526,Imbituba,-28.24,-48.6703,60.854000000000056,75,100,2.6,BR,1689825105
527,Hong Kong,22.2855,114.1577,90.24800000000002,77,99,2.24,HK,1689825081
528,Ingeniero Jacobacci,-41.3427,-69.5448,37.32800000000007,94,69,1.79,AR,1689825107
529,Novyy Urgal,51.0736,132.5642,91.36400000000003,32,36,2.12,RU,1689825107
530,Verdal,63.7933,11.4817,46.43600000000007,89,89,0.41,NO,1689825108
531,Miðvágur,62.0511,-7.1939,45.42800000000007,93,100,9.77,FO,1689825109
532,Magadan,59.5667,150.8,83.53399999999999,70,32,3.4,RU,1689825109
533,Puerto Deseado,-47.7503,-65.8938,45.08600000000007,76,71,10.55,AR,1689825110
534,Cotonou,6.3654,2.4183,78.78200000000001,89,40,7.72,BJ,1689825111
535,Coquimbo,-29.9533,-71.3436,56.93000000000004,100,0,3.09,CL,1689824979
536,Gijang,35.2442,129.2139,82.13000000000004,82,87,3.01,KR,1689825113
537,Converse,29.518,-98.3161,90.89600000000004,62,0,7.72,US,1689825113
538,Cinisi,38.1562,13.1073,86.86400000000003,38,0,0.51,IT,1689825114
539,Kasongo-Lunda,-6.4667,16.8167,64.70600000000003,51,24,0.53,CD,1689825116
540,Maralal,1.0968,36.698,57.128000000000064,78,82,0.18,KE,1689825116
541,Delmas 73,18.5447,-72.3028,84.92000000000006,70,50,7.2,HT,1689825117
542,Bahía de Kino,28.8333,-111.9333,89.72600000000008,71,25,4.98,MX,1689825118
543,Jonava,55.0833,24.2833,55.45400000000005,93,0,1.03,LT,1689825118
544,Estrela,-28.0611,-50.9383,49.40600000000003,91,100,4.25,BR,1689825119
545,East Wenatchee Bench,47.4257,-120.2812,92.48000000000005,27,0,2.06,US,1689825120
546,Puerto Madryn,-42.7692,-65.0385,51.602000000000075,74,51,5.91,AR,1689824858
547,Nieuw Amsterdam,5.8833,-55.0833,78.0260000000001,90,11,3.28,SR,1689825121
548,Sandnessjøen,66.0217,12.6316,51.908,87,20,0.0,NO,1689825122
549,Farrokh Shahr,32.2717,50.9801,63.662000000000056,39,2,1.03,IR,1689825122
550,Vilyuysk,63.7553,121.6247,74.066,51,41,3.27,RU,1689825123
551,Port Saint John's,-31.6229,29.5448,53.79800000000002,70,75,5.73,ZA,1689825124
552,Anáhuac,27.2333,-100.15,88.21400000000003,46,0,12.88,MX,1689825125
553,Pemangkat,1.1667,108.9667,82.70600000000003,76,100,2.32,ID,1689825125
554,Puerto Lempira,15.2667,-83.7667,80.34800000000003,89,100,4.27,HN,1689825126
555,Makhambet,47.6667,51.5833,79.12400000000001,48,83,2.72,KZ,1689825127
556,Slave Lake,55.2834,-114.769,69.78200000000001,64,75,1.54,CA,1689825128
557,Mathba,22.2855,89.9629,88.17800000000007,71,61,6.46,BD,1689825129
558,Zilair,52.2332,57.4392,61.538000000000046,91,99,4.01,RU,1689825130
559,Shimoda,34.6667,138.95,79.16000000000008,80,52,2.33,JP,1689825130
560,Sergeevka,53.88,67.4158,70.39400000000008,65,20,4.57,KZ,1689825132
