,City,Lat,Long,Max Temp,Humidity,Cloudiness,Wind Speed,Country,Date
0,Thompson,55.7435,-97.8558,288.24,88,75,4.12,CA,1689288335
1,Puerto Ayora,-0.7393,-90.3518,302.13,89,39,1.79,EC,1689288336
2,Ribeira Grande,38.5167,-28.7,294.14,87,63,2.68,PT,1689288337
3,Port-aux-Français,-49.35,70.2167,275.8,63,33,16.76,TF,1689288338
4,Tura,25.5198,90.2201,296.43,99,100,2.57,IN,1689288339
5,El Bauga,18.262,33.9081,305.08,17,83,5.32,SD,1689288340
6,Cabedelo,-6.9811,-34.8339,297.52,78,0,3.91,BR,1689288158
7,Blackmans Bay,-43.0167,147.3167,287.44,64,76,4.11,AU,1689288341
8,Ad Dabbah,18.05,30.95,306.93,17,68,6.23,SD,1689288342
9,Margaret River,-33.95,115.0667,284.73,72,95,7.11,AU,1689288342
10,Ilhabela,-23.7781,-45.3581,293.11,73,0,5.35,BR,1689288343
11,Lethem,3.3803,-59.7968,299.41,78,41,0.5,GY,1689288344
12,Naryan-Mar,67.6713,53.087,281.66,74,55,3.95,RU,1689288345
13,Qaqortoq,60.7167,-46.0333,279.75,80,100,2.72,GL,1689288346
14,Longyearbyen,78.2186,15.6401,283.06,66,40,7.2,SJ,1689288346
15,Acapulco de Juárez,16.8634,-99.8901,305.05,70,20,6.17,MX,1689288347
16,Ushuaia,-54.8,-68.3,277.96,60,20,2.06,AR,1689288348
17,Anadyr,64.75,177.4833,282.43,93,100,6.0,RU,1689288349
18,Nālūt,30.3333,10.85,301.97,18,0,4.26,LY,1689288349
19,Lebu,-37.6167,-73.65,281.18,73,100,2.52,CL,1689288350
20,Bandar Lampung,-5.4254,105.258,297.29,93,100,2.98,ID,1689288351
21,Brookings,44.3114,-96.7984,301.03,63,20,4.12,US,1689288351
22,Edinburgh of the Seven Seas,-37.0676,-12.3116,286.29,72,80,10.11,SH,1689288352
23,Grytviken,-54.2811,-36.5092,268.97,75,8,1.51,GS,1689288353
24,Chingirlau,51.095,54.0814,286.25,64,7,3.87,KZ,1689288354
25,Waitangi,-43.9535,-176.5597,281.94,90,56,4.47,NZ,1689288354
26,Albany,42.6001,-73.9662,301.58,88,68,1.04,US,1689288264
27,Aasiaat,68.7098,-52.8699,277.11,98,100,4.54,GL,1689288356
28,Dunedin,-45.8742,170.5036,285.82,53,11,5.36,NZ,1689288356
29,Verín,41.9415,-7.4381,291.63,62,2,1.79,ES,1689288357
30,Queenstown,-31.8976,26.8753,278.51,66,8,0.7,ZA,1689288358
31,Takoradze,4.8845,-1.7554,297.89,87,18,2.65,GH,1689288359
32,Batroûn,34.2553,35.6581,299.19,58,0,1.66,LB,1689288360
33,Kerikeri,-35.2268,173.9474,288.66,89,20,1.79,NZ,1689287789
34,Yarmouth,41.7057,-70.2286,300.41,83,0,5.66,US,1689288361
35,College,64.8569,-147.8028,296.52,43,75,2.57,US,1689288362
36,Emerald,-23.5333,148.1667,287.78,79,0,4.43,AU,1689288363
37,East London,-33.0153,27.9116,287.95,79,3,4.74,ZA,1689288364
38,Pacocha,-17.5833,-71.3333,289.92,86,88,1.51,PE,1689288365
39,Suoyarvi,62.0833,32.35,286.69,90,100,1.94,RU,1689288366
40,Whitehorse,60.7161,-135.0538,292.65,67,75,3.6,CA,1689288366
41,Vilyuchinsk,52.9306,158.4028,285.3,81,100,2.12,RU,1689287782
42,Gargaliánoi,37.0667,21.6333,300.57,65,0,4.29,GR,1689288368
43,Puerto Natales,-51.7236,-72.4875,271.05,91,45,1.3,CL,1689288369
44,Mount Gambier,-37.8333,140.7667,282.81,66,100,5.29,AU,1689288370
45,Bilibino,68.0546,166.4372,295.55,42,71,1.3,RU,1689288370
46,Tosontsengel,48.7567,98.2839,283.97,87,0,0.37,MN,1689288372
47,Ladysmith,48.9829,-123.8194,298.84,41,20,2.06,CA,1689288309
48,West Island,-12.1568,96.8225,299.14,83,75,4.63,CC,1689288373
49,Tôlanaro,-25.0319,46.9987,291.19,82,75,1.03,MG,1689288434
50,Ketchikan,55.3422,-131.6461,294.41,60,0,5.66,US,1689288435
51,San Antonio de Palé,-1.4014,5.6325,296.78,85,65,4.69,GQ,1689288436
52,Sitka,57.0531,-135.33,291.09,63,40,2.57,US,1689288437
53,Martaban,16.5314,97.6111,297.56,94,100,1.2,MM,1689288438
54,Sept-Îles,50.2001,-66.3821,291.51,96,100,4.63,CA,1689288439
55,Rémire-Montjoly,4.9167,-52.2667,300.17,78,0,0.51,GF,1689288041
56,Yellowknife,62.456,-114.3525,298.44,31,40,6.17,CA,1689287946
57,Hermanus,-34.4187,19.2345,284.71,61,4,4.17,ZA,1689288442
58,Greymouth,-42.4667,171.2,285.51,92,94,5.57,NZ,1689288443
59,Lihue,21.9789,-159.3672,302.92,68,40,5.66,US,1689288444
60,Khōst,33.3395,69.9204,301.47,54,0,1.21,AF,1689288445
61,Tahe,52.3333,124.7333,293.45,61,67,0.49,CN,1689288446
62,Port Mathurin,-19.6833,63.4167,296.95,78,15,7.25,MU,1689287944
63,Zuhres,48.0114,38.2644,290.19,74,4,2.9,UA,1689288448
64,Bethel,41.3712,-73.414,302.6,72,0,4.12,US,1689288449
65,Dubove,48.1721,23.8895,289.64,96,15,1.11,UA,1689288451
66,Candolim,15.5181,73.7626,299.24,87,100,7.79,IN,1689288452
67,Ilulissat,69.2167,-51.1,284.16,82,75,6.17,GL,1689288234
68,Isafjordur,66.0755,-23.124,279.79,82,100,6.13,IS,1689288454
69,Nadi,-17.8,177.4167,298.15,69,75,4.12,FJ,1689288454
70,Grande Prairie,55.1667,-118.8027,291.25,82,100,2.06,CA,1689288297
71,Bredasdorp,-34.5322,20.0403,283.21,79,4,1.84,ZA,1689288456
72,Chonchi,-42.6128,-73.8092,279.71,97,100,2.26,CL,1689288457
73,Gizo Government Station,-8.103,156.8419,300.02,85,40,6.9,SB,1689288458
74,Kalmunai,7.4167,81.8167,299.26,76,6,2.57,LK,1689288459
75,Wailua Homesteads,22.0669,-159.378,302.59,75,40,5.66,US,1689288460
76,Fish Town,5.1964,-7.8756,295.38,99,100,1.44,LR,1689288461
77,Adamstown,-25.066,-130.1015,294.31,77,1,2.75,PN,1689288462
78,St. George's,12.0564,-61.7485,300.59,82,39,6.43,GD,1689288463
79,Stanley,54.868,-1.6985,285.81,82,20,2.06,GB,1689288467
80,Nouadhibou,20.931,-17.0347,296.14,83,9,3.09,MR,1689288468
81,Tiksi,71.6872,128.8694,282.87,65,61,3.84,RU,1689288469
82,Nova Sintra,14.8667,-24.7167,296.68,85,95,1.87,CV,1689288470
83,Semnan,35.5729,53.3971,300.69,38,0,1.0,IR,1689288471
84,San Rafael,-34.6177,-68.3301,282.31,46,80,6.31,AR,1689288391
85,Iqaluit,63.7506,-68.5145,279.0,100,100,7.2,CA,1689288473
86,Fayrōz Kōh,34.5195,65.2509,286.95,27,0,1.24,AF,1689288474
87,Port Sudan,19.6175,37.2164,304.6,60,46,1.59,SD,1689288476
88,Belyy Yar,53.6039,91.3903,289.09,100,52,0.0,RU,1689288476
89,Arraial do Cabo,-22.9661,-42.0278,298.13,69,0,3.6,BR,1689288479
90,Haiku-Pauwela,20.9219,-156.3051,304.16,56,20,9.26,US,1689288480
91,Kohlu,29.8962,69.252,301.48,48,0,1.47,PK,1689288481
92,Princeville,45.7668,-61.2985,295.76,93,100,3.09,CA,1689288079
93,Vorgashor,67.5833,63.95,279.19,63,2,1.92,RU,1689288482
94,Saint Paul Harbor,57.79,-152.4072,291.88,59,0,2.06,US,1689288483
95,Invercargill,-46.4,168.35,283.37,76,85,7.05,NZ,1689288484
96,Peace River,56.2501,-117.286,300.32,34,75,1.03,CA,1689288545
97,Popondetta,-8.7537,148.2534,298.61,81,17,0.9,PG,1689288545
98,Xiongzhou,25.1167,114.3,299.96,77,100,1.11,CN,1689288546
99,Celano,42.0855,13.5398,293.15,65,25,1.05,IT,1689288547
100,Nagqu Prefecture,31.5,92.0,278.42,82,100,1.83,CN,1689288548
101,Cangas del Narcea,43.1833,-6.55,293.28,78,60,1.96,ES,1689288549
102,Constanța,44.1833,28.65,298.53,72,0,5.96,RO,1689288549
103,Utrik,11.2278,169.8474,301.62,77,36,9.11,MH,1689288550
104,Papatowai,-46.5619,169.4708,282.85,78,77,8.66,NZ,1689288551
105,Koh Pha Ngan,9.7578,100.0291,299.53,74,100,8.52,TH,1689288551
106,Sidi Khaled,34.387,4.9879,307.04,17,2,4.21,DZ,1689288552
107,Nemuro,43.3236,145.575,286.78,96,99,3.82,JP,1689288553
108,Coquimbo,-29.9533,-71.3436,292.0,55,0,2.06,CL,1689288511
109,Trincomalee,8.5711,81.2335,300.22,77,9,8.9,LK,1689288554
110,San Patricio,28.017,-97.5169,310.12,51,2,8.84,US,1689288556
111,Ola,59.5833,151.2833,288.23,80,56,1.27,RU,1689288557
112,Wacheng,33.7833,114.5167,296.96,72,92,3.51,CN,1689288558
113,Nazarovo,56.0064,90.3914,289.81,94,100,0.95,RU,1689288558
114,Keflavik,64.0049,-22.5624,282.39,71,75,12.35,IS,1689288559
115,Pimentel,-6.8367,-79.9342,297.31,64,75,6.17,PE,1689288560
116,Olinda,-8.0089,-34.8553,300.0,74,20,3.09,BR,1689288421
117,Lemvig,56.5486,8.3102,288.23,83,14,5.19,DK,1689288561
118,Port Elizabeth,-33.918,25.5701,288.31,88,0,5.14,ZA,1689288562
119,Mukalla,14.5425,49.1242,304.11,67,34,0.44,YE,1689288563
120,Roswell,34.0232,-84.3616,305.09,71,75,4.12,US,1689288510
121,Vigan,17.5747,120.3869,300.33,82,100,4.21,PH,1689288564
122,El Estor,15.5333,-89.35,300.55,87,57,1.92,GT,1689288565
123,Codrington,-38.2667,141.9667,282.61,65,100,7.87,AU,1689288566
124,Kavaratti,10.5669,72.642,300.81,79,100,6.68,IN,1689288566
125,Big Spring,32.2504,-101.4787,315.4,22,0,7.2,US,1689288271
126,Talnakh,69.4865,88.3972,277.71,89,76,2.89,RU,1689288568
127,Kizil-Arvat,38.9764,56.2757,300.66,44,0,4.76,TM,1689288568
128,Zaozërsk,69.4005,32.4476,283.42,80,80,2.53,RU,1689288569
129,Atafu Village,-8.5421,-172.5159,301.55,74,25,5.69,TK,1689288570
130,Vorkuta,67.5,64.0,279.63,65,2,1.76,RU,1689288570
131,Hawaiian Paradise Park,19.5933,-154.9731,302.06,64,40,3.6,US,1689288571
132,Brejo da Madre de Deus,-8.1458,-36.3711,292.62,89,40,1.94,BR,1689288572
133,Dullewala,31.8359,71.4362,308.6,40,0,5.22,PK,1689288573
134,Türkmenbaşy,40.0222,52.9552,295.58,53,0,5.14,TM,1689288573
135,Xining,36.6167,101.7667,283.6,74,94,1.49,CN,1689288574
136,Ceuta,35.8903,-5.3075,297.17,97,28,2.96,ES,1689288575
137,Egilsstadir,65.2653,-14.3948,279.1,75,75,2.57,IS,1689288575
138,Ghadames,30.1337,9.5007,303.98,15,0,3.28,LY,1689288576
139,Tiznit Province,29.5833,-9.5,304.81,17,73,1.12,MA,1689288577
140,Słupsk,54.4641,17.0287,289.49,88,70,3.13,PL,1689288577
141,Nānpāra,27.8667,81.5,299.46,90,99,3.14,IN,1689288578
142,Longmen,24.9597,118.0889,301.49,78,90,0.77,CN,1689288579
143,Masterton,-40.9597,175.6575,286.97,73,77,5.01,NZ,1689288580
144,Uturoa,-16.7333,-151.4333,299.29,79,32,9.17,PF,1689288580
145,Pacific Grove,36.6177,-121.9166,302.17,70,0,4.12,US,1689288581
146,Avarua,-21.2078,-159.775,300.18,78,16,3.6,CK,1689288642
147,Newman,37.3138,-121.0208,310.34,10,0,3.01,US,1689288643
148,Baiyin,36.5583,104.2081,288.92,60,55,3.17,CN,1689288644
149,Zungeru,9.8128,6.1558,301.14,92,83,1.11,NG,1689288644
150,Champerico,14.3,-91.9167,307.45,70,52,4.17,GT,1689288645
151,Copperas Cove,31.1241,-97.9031,314.26,26,0,6.17,US,1689288646
152,Boundiali,9.5217,-6.4869,295.74,87,78,1.78,CI,1689288646
153,Udachny,66.4167,112.4,278.4,64,68,5.29,RU,1689288647
154,Mendefera,14.8872,38.8153,292.62,73,67,0.76,ER,1689288648
155,Catriel,-37.8791,-67.7956,281.73,52,100,3.41,AR,1689288648
156,Kiffa,16.6166,-11.4045,312.13,18,52,0.64,MR,1689288649
157,Ushtobe,45.2514,77.9838,297.09,25,0,2.9,KZ,1689288650
158,Spring Creek,40.7266,-115.5859,304.48,11,0,6.05,US,1689288651
159,Happy Valley-Goose Bay,53.3168,-60.3315,298.32,53,20,3.09,CA,1689288652
160,Vila Franca do Campo,37.7167,-25.4333,294.38,90,56,2.73,PT,1689288652
161,Shenandoah,30.4013,-91.0009,308.74,65,96,0.89,US,1689288653
162,Nuku'alofa,-21.1333,-175.2,296.34,56,75,5.66,TO,1689288654
163,Catherinas Lust,6.4,-57.6,298.98,83,8,3.16,GY,1689288655
164,Carnarvon,-24.8667,113.6333,290.11,80,2,3.95,AU,1689288655
165,Heihe,50.2441,127.4902,292.47,47,61,1.72,CN,1689288656
166,Severnoye,56.3491,78.3619,292.47,70,57,1.72,RU,1689288657
167,Labrador City,52.9463,-66.9114,294.1,49,40,3.09,CA,1689288657
168,Lüderitz,-26.6481,15.1594,291.25,39,2,2.4,NA,1689288658
169,Şereflikoçhisar,38.9393,33.5386,295.32,42,0,3.08,TR,1689288659
170,Raseiniai,55.3736,23.1217,284.7,85,100,2.82,LT,1689288659
171,Olonkinbyen,70.9221,-8.7187,278.15,99,100,6.13,SJ,1689288660
172,Rongelap,11.1635,166.8941,301.35,80,49,7.75,MH,1689288661
173,Port Saint John's,-31.6229,29.5448,287.75,82,13,2.34,ZA,1689288662
174,Argos,37.6333,22.7333,300.25,41,0,1.34,GR,1689288663
175,Mugia,43.1041,-9.2179,290.32,80,9,5.45,ES,1689288664
176,La Passe,45.5549,-0.8967,290.38,84,32,2.38,FR,1689288664
177,Ust'-Ilimsk,58.0006,102.6619,287.08,69,90,2.12,RU,1689288665
178,Saldanha,-33.0117,17.9442,283.18,52,24,4.11,ZA,1689288666
179,Jishou,28.3167,109.7167,298.97,95,96,0.61,CN,1689288667
180,Koné,-21.0595,164.8658,295.47,50,77,4.07,NC,1689288667
181,Ta`ū,-14.2336,-169.5144,300.48,72,32,6.7,AS,1689288668
182,Syra,37.4423,24.9425,304.54,33,0,5.14,GR,1689288669
183,Gadzhiyevo,69.2551,33.3362,284.48,69,98,3.86,RU,1689288669
184,Kyzyl-Suu,42.3414,78.0056,291.45,24,1,3.16,KG,1689288670
185,Villafranca Tirrena,38.2401,15.4374,301.14,63,0,0.63,IT,1689288671
186,Bayanaul,50.7889,75.6956,296.93,42,41,2.95,KZ,1689288672
187,Rabo de Peixe,37.8,-25.5833,293.88,83,75,3.6,PT,1689288672
188,Saint-François,46.4154,3.9054,286.86,88,0,2.06,FR,1689288674
189,Leh,34.1667,77.5833,286.59,34,12,3.51,IN,1689288675
190,Karasburg,-28.0167,18.75,283.83,41,0,5.76,NA,1689288675
191,Gornyy,55.1153,83.9059,291.13,80,55,1.82,RU,1689288676
192,Shingū,33.7333,135.9833,301.06,74,94,3.71,JP,1689288677
193,Khandyga,62.6667,135.6,286.14,93,100,1.24,RU,1689288678
194,Newport,51.5877,-2.9984,289.64,90,100,2.89,GB,1689288679
195,Betio Village,1.358,172.9211,299.17,77,96,3.07,KI,1689288680
196,Gorontalo,0.5412,123.0595,298.23,92,93,0.39,ID,1689288741
197,Alice Springs,-23.7,133.8833,277.9,93,0,2.06,AU,1689288741
198,Capâo Bonito,-24.0058,-48.3494,286.59,64,34,2.83,BR,1689288669
199,Jamestown,42.097,-79.2353,296.49,71,40,4.12,US,1689288743
200,Selfoss,63.9331,-20.9971,281.51,82,66,5.97,IS,1689288744
201,Priargunsk,50.3691,119.1012,292.48,76,84,4.54,RU,1689288745
202,Esquel,-42.9,-71.3167,275.06,96,100,0.72,AR,1689288498
203,Aktau,43.65,51.2,294.47,68,0,4.38,KZ,1689288746
204,Northridge,39.8076,-84.1969,303.48,60,40,4.12,US,1689288747
205,Iskateley,67.6803,53.1512,281.64,73,54,3.93,RU,1689288748
206,Bārah,13.7,30.3667,305.83,31,80,3.12,SD,1689288748
207,Lakatoro,-16.0999,167.4164,297.7,79,88,8.14,VU,1689288749
208,Amasra,41.7463,32.3863,296.36,60,0,2.93,TR,1689288750
209,Springs,-26.25,28.4,280.74,79,3,2.88,ZA,1689288751
210,Akureyri,65.6835,-18.0878,278.11,87,100,8.75,IS,1689288752
211,Afaahiti,-17.75,-149.2833,300.08,71,57,8.53,PF,1689288752
212,Faya-Largeau,17.9257,19.1043,305.87,15,15,1.65,TD,1689288753
213,Cologne,50.9333,6.95,291.46,69,0,1.54,DE,1689288754
214,Horta,38.5333,-28.6333,293.72,87,60,2.68,PT,1689288755
215,La Sarre,48.8002,-79.1996,289.09,85,100,2.22,CA,1689288755
216,Dudinka,69.4058,86.1778,277.94,71,78,5.33,RU,1689288756
217,Cockburn Town,21.4612,-71.1419,301.5,84,70,10.06,TC,1689288757
218,Puerto Deseado,-47.7503,-65.8938,276.1,71,88,3.47,AR,1689288692
219,Merizo Village,13.2658,144.6691,302.58,88,98,8.12,GU,1689288758
220,Mahibadhoo,3.7833,72.9667,300.85,77,26,2.63,MV,1689288759
221,Muroto-misakicho,33.2833,134.15,299.6,88,98,5.99,JP,1689288760
222,Al Ghayzah,16.2079,52.176,300.0,90,96,0.66,YE,1689288760
223,Abagur,53.7308,87.2526,292.76,84,52,0.67,RU,1689288761
224,Puerto Ayacucho,5.6639,-67.6236,299.28,87,62,1.6,VE,1689288763
225,Kibungo,-2.1597,30.5427,290.66,68,25,1.2,RW,1689288763
226,Arkhara,49.4212,130.0842,297.37,62,47,4.04,RU,1689288765
227,Taoudenni,22.6783,-3.9836,311.03,9,13,4.57,ML,1689288767
228,Say,13.1007,2.3689,303.46,52,35,4.92,NE,1689288768
229,Vilyuysk,63.7553,121.6247,289.69,59,93,2.86,RU,1689288768
230,Papao,-17.75,-149.55,300.97,71,29,9.29,PF,1689288770
231,Pisco,-13.7,-76.2167,294.18,73,0,9.26,PE,1689288471
232,Puerto Real,36.5282,-6.1901,299.05,73,0,2.57,ES,1689288771
233,Harper,4.375,-7.7169,298.38,85,73,4.78,LR,1689288772
234,Klyuchi,52.2667,79.1667,298.55,45,74,2.49,RU,1689288772
235,Korsholm,63.1142,21.6822,289.2,90,0,2.68,FI,1689288773
236,Qui Nhon,13.7667,109.2333,299.26,84,99,2.48,VN,1689288774
237,Songea,-10.6833,35.65,288.67,61,72,1.95,TZ,1689288775
238,St. John's,47.5649,-52.7093,292.81,82,75,6.17,CA,1689288633
239,Opuwo,-18.0607,13.84,283.77,32,3,1.61,NA,1689288777
240,Palu,-0.8917,119.8707,297.89,94,100,1.47,ID,1689288778
241,Hamilton,39.1834,-84.5333,304.12,74,75,3.6,US,1689288581
242,Lata,40.1629,-8.3327,287.79,67,3,0.87,PT,1689288779
243,Arteche,12.2645,125.4048,298.99,92,100,2.63,PH,1689288780
244,Ghat,24.9647,10.1728,303.48,14,0,4.11,LY,1689288781
245,Minas de Marcona,-15.2119,-75.1103,286.39,84,17,6.33,PE,1689288842
246,Tranqueras,-31.2,-55.75,281.02,95,100,3.14,UY,1689288844
247,Siguiri,11.6667,-9.5,296.29,89,94,2.14,GN,1689288845
248,Luanda,-8.8368,13.2343,293.15,88,0,2.57,AO,1689288845
249,Asunción Nochixtlán,17.4667,-97.2333,294.56,57,31,6.01,MX,1689288846
250,Fengzhen,40.4394,113.1536,291.02,64,20,1.9,CN,1689288720
251,West Side Highway,46.184,-122.9172,303.44,44,0,3.6,US,1689288848
252,Khenchela,35.4358,7.1433,301.07,31,40,1.83,DZ,1689288850
253,Hövsan,40.3744,50.0853,296.22,73,0,2.06,AZ,1689288850
254,Bhag,29.0415,67.8239,308.75,46,0,4.65,PK,1689288851
255,Nshamba,-1.7983,31.5511,292.41,53,25,1.35,TZ,1689288852
256,Linfen,36.0889,111.5189,297.38,59,99,3.11,CN,1689288853
257,Susuman,62.7833,148.1667,292.88,70,64,2.56,RU,1689288854
258,Aykhal,66.0,111.5,281.29,52,100,5.45,RU,1689288854
259,Taltal,-25.4,-70.4833,292.34,54,95,2.62,CL,1689288856
260,Punta Arenas,-53.15,-70.9167,271.21,86,0,2.06,CL,1689288827
261,Flying Fish Cove,-10.4217,105.6791,296.97,83,75,5.14,CX,1689288859
262,Tazovsky,67.4667,78.7,277.98,74,11,2.42,RU,1689288860
263,Kingston,17.997,-76.7936,304.4,68,20,7.2,JM,1689288861
264,Prado,-17.3411,-39.2208,296.32,85,7,5.56,BR,1689288862
265,Shimokizukuri,40.8061,140.3861,295.66,83,54,2.89,JP,1689288863
266,Kruisfontein,-34.0033,24.7314,283.25,68,0,2.32,ZA,1689288863
267,Saynshand,44.8824,110.1163,291.32,53,84,9.46,MN,1689288864
268,Ar Ruţbah,33.0381,40.2848,301.12,17,0,4.89,IQ,1689288865
269,Hadibu,12.65,54.0333,298.48,81,71,10.22,YE,1689288865
270,Thornton,39.868,-104.9719,308.31,22,75,2.24,US,1689288866
271,San Pedro Pochutla,15.7333,-96.4667,301.99,71,42,1.63,MX,1689288575
272,Winnemucca,40.973,-117.7357,305.04,13,0,5.86,US,1689288870
273,La Ronge,55.1001,-105.2842,293.29,32,100,6.69,CA,1689288870
274,Laguna,38.421,-121.4238,312.09,31,0,3.09,US,1689288866
275,Tizi Rached,36.6718,4.1918,298.22,73,29,0.87,DZ,1689288872
276,Bambanglipuro,-7.95,110.2833,297.41,88,98,5.2,ID,1689288873
277,Petropavlovsk-Kamchatskiy,53.0452,158.6483,285.48,88,75,4.0,RU,1689288873
278,Troitsko-Pechorsk,62.7084,56.1964,285.09,93,96,2.3,RU,1689288874
279,Xilin Hot,43.9667,116.0333,290.91,79,2,4.56,CN,1689288875
280,Kunming,25.0389,102.7183,291.11,94,100,2.0,CN,1689288875
281,Fallujah,33.3538,43.7795,308.09,15,0,9.25,IQ,1689288877
282,Kishtwār,33.3167,75.7667,293.06,86,70,1.04,IN,1689288877
283,Prince Rupert,54.3161,-130.3201,288.2,82,0,5.14,CA,1689288610
284,Hilo,19.7297,-155.09,304.42,74,40,3.6,US,1689288879
285,Kununurra,-15.7667,128.7333,289.14,88,20,0.0,AU,1689288605
286,Aden,12.7794,45.0367,303.19,77,100,9.13,YE,1689288942
287,Henderson,36.0397,-114.9819,317.97,10,0,6.17,US,1689288943
288,George Town,5.4112,100.3354,301.61,92,20,0.51,MY,1689288943
289,Broome,42.2506,-75.833,299.37,77,100,3.09,US,1689288944
290,Uliastai,47.7417,96.8444,285.91,77,1,1.85,MN,1689288945
291,Kristiansund,63.1115,7.732,287.18,94,100,0.51,NO,1689288945
292,Wajir,1.7471,40.0573,297.36,60,64,9.38,KE,1689288946
293,Dwārka,22.2394,68.9678,302.06,75,99,6.56,IN,1689288947
294,Cururupu,-1.8283,-44.8683,296.87,93,9,1.47,BR,1689288947
295,Touros,-5.1989,-35.4608,298.52,80,14,5.9,BR,1689288722
296,Itaituba,-4.2761,-55.9836,301.14,66,80,1.09,BR,1689288678
297,Necochea,-38.5473,-58.7368,278.42,78,18,1.48,AR,1689288950
298,Khabary,53.6259,79.5345,295.72,53,64,2.64,RU,1689288951
299,Richards Bay,-28.783,32.0377,289.11,83,28,1.38,ZA,1689288952
300,Valparaíso,-33.0393,-71.6273,290.28,70,0,4.12,CL,1689288725
301,Hithadhoo,-0.6,73.0833,300.97,76,94,2.62,MV,1689288954
302,Aktobe,50.2797,57.2072,287.2,82,0,4.0,KZ,1689288954
303,Bamboo Flat,11.7,92.7167,300.2,83,20,2.06,IN,1689288955
304,Krivodanovka,55.0881,82.6551,294.2,88,40,2.0,RU,1689288956
305,Antsiranana,-12.2787,49.2917,295.46,77,19,5.0,MG,1689288957
306,Tākestān,36.0696,49.6959,291.22,84,16,4.27,IR,1689288957
307,Bodaybo,57.8506,114.1933,289.13,66,97,1.49,RU,1689288958
308,Flat River,37.8501,-90.5168,305.66,58,75,3.09,US,1689288959
309,Ancud,-41.8697,-73.8203,280.43,95,100,5.21,CL,1689288959
310,Hotan,37.0997,79.9269,297.56,24,0,1.59,CN,1689288960
311,Ji’an,27.1172,114.9793,300.7,71,100,2.58,CN,1689288961
312,Qarazhal,48.0078,70.7903,299.25,34,30,4.48,KZ,1689288962
313,Sandnessjøen,66.0217,12.6316,286.44,86,88,5.6,NO,1689288962
314,Ust-Nera,64.5667,143.2,297.44,54,37,2.73,RU,1689288963
315,Mandalī,33.7499,45.5541,307.54,13,0,2.63,IQ,1689288964
316,Buta,2.7858,24.73,293.54,100,58,0.83,CD,1689288965
317,Fort St. John,56.2499,-120.8529,297.09,46,75,1.54,CA,1689288691
318,Isangel,-19.55,169.2667,297.21,69,75,3.09,VU,1689288768
319,Nuuk,64.1835,-51.7216,284.49,66,100,6.17,GL,1689288967
320,Acarigua,9.5545,-69.1956,298.08,91,36,0.13,VE,1689288968
321,Fortuna,40.5982,-124.1573,294.78,79,20,6.69,US,1689288969
322,Abū Zabad,12.35,29.25,299.78,60,9,2.73,SD,1689288970
323,Saipan,15.1355,145.701,302.54,100,40,7.2,MP,1689288970
324,Licata,37.1071,13.9461,301.06,69,0,1.45,IT,1689288971
325,Santa Ana,33.7456,-117.8678,311.71,38,20,4.63,US,1689288972
326,Port Alfred,-33.5906,26.891,285.47,94,0,6.46,ZA,1689288972
327,Iguape,-24.7081,-47.5553,292.47,56,20,3.72,BR,1689288973
328,Val-d'Or,48.1002,-77.7828,289.2,88,100,5.66,CA,1689288974
329,Ōdachō-ōda,35.1833,132.5,298.58,88,100,3.92,JP,1689288974
330,As Sulayyil,20.4607,45.5779,307.29,15,100,2.7,SA,1689288975
331,Bodø,67.28,14.405,292.01,63,0,5.66,NO,1689288976
332,Saint-Pierre,-21.3393,55.4781,294.02,94,75,6.17,RE,1689288977
333,Puerto Lempira,15.2667,-83.7667,303.23,70,40,4.63,HN,1689288978
334,Tazacorte,28.629,-17.9293,296.69,83,8,6.69,ES,1689289038
335,Vrangel',42.7297,133.0839,290.76,87,100,10.28,RU,1689289039
336,Viedma,-40.8135,-62.9967,279.79,63,71,2.96,AR,1689288751
337,Sos'va,59.1766,61.8558,287.86,91,100,2.06,RU,1689289041
338,Banjarmasin,-3.3244,114.591,297.23,94,98,1.14,ID,1689289042
339,Jinchang,38.4953,102.1739,292.83,32,63,2.81,CN,1689289043
340,Mogadishu,2.0371,45.3438,298.02,83,90,7.49,SO,1689289044
341,Slantsy,59.1182,28.0914,287.2,90,17,2.09,RU,1689289045
342,Strathfieldsaye,-36.8,144.3667,279.96,64,100,2.82,AU,1689288946
343,Jacmel,18.2342,-72.5347,304.06,77,92,1.6,HT,1689289046
344,Wanning,18.8003,110.3967,300.29,90,88,2.62,CN,1689289047
345,Hasaki,35.7333,140.8333,299.42,81,100,2.09,JP,1689289048
346,Kabompo,-13.5927,24.2008,285.75,55,0,3.65,ZM,1689289049
347,Richfield,44.8833,-93.283,304.27,43,40,8.23,US,1689289049
348,Bandar Labuan,5.2888,115.2692,298.35,83,20,0.0,MY,1689289050
349,Nesebar,42.7833,27.7333,297.64,76,0,0.44,BG,1689289051
350,Cadale,2.7603,46.3222,297.99,83,79,7.28,SO,1689289051
351,Ust-Tsilma,65.441,52.1498,284.94,90,91,2.36,RU,1689289052
352,Tvøroyri,61.5556,-6.8111,283.13,82,44,5.09,FO,1689289053
353,Polyarny,69.1989,33.4478,284.7,69,97,4.04,RU,1689289054
354,Freetown,8.484,-13.2299,300.99,78,75,5.14,SL,1689289054
355,Çanakkale Province,40.0833,26.8333,297.12,51,0,1.08,TR,1689289055
356,Progreso,21.2833,-89.6667,307.1,79,76,7.46,MX,1689289056
357,Malango,-2.9627,119.9001,292.8,97,99,0.44,ID,1689289056
358,City of San Pedro,14.35,121.0167,298.9,92,75,3.09,PH,1689289057
359,Plettenberg Bay,-34.0527,23.3716,287.13,52,13,2.33,ZA,1689289058
360,Sulţānah,24.4926,39.5857,313.4,7,40,3.09,SA,1689288924
361,Choibalsan,48.0667,114.5,288.91,71,100,8.92,MN,1689289059
362,Karsun,54.1994,46.9827,283.87,95,63,2.92,RU,1689289060
363,Westport,41.1415,-73.3579,303.3,76,0,5.66,US,1689288949
364,Orapa,-21.2833,25.3667,284.48,53,3,6.38,BW,1689289061
365,Rundu,-17.9333,19.7667,282.58,51,1,2.92,NA,1689289062
366,Sur,22.5667,59.5289,303.62,61,99,5.35,OM,1689289063
367,San Miguel de Cozumel,20.5083,-86.9458,305.9,68,6,4.46,MX,1689288571
368,Manokwari,-0.8667,134.0833,300.3,79,99,3.62,ID,1689289064
369,Auki,-8.7676,160.7034,300.9,77,30,1.81,SB,1689289065
370,Sal Rei,16.1833,-22.9167,299.27,82,8,2.68,CV,1689289065
371,Mungaa,-4.9667,34.8833,287.02,66,3,4.24,TZ,1689289066
372,Vernon,50.2581,-119.2691,303.87,42,62,2.68,CA,1689289067
373,Ailuk,10.2197,169.9797,301.52,76,16,8.16,MH,1689289068
374,Glace Bay,46.1969,-59.957,290.87,97,100,5.14,CA,1689289068
375,Keetmanshoop,-26.5833,18.1333,286.66,41,0,4.63,NA,1689288924
376,Barra,-11.0894,-43.1417,298.69,43,1,0.41,BR,1689289070
377,Usogorsk,63.4106,48.6872,286.43,98,100,2.34,RU,1689289070
378,Osica de Sus,44.25,24.3167,299.94,46,2,2.37,RO,1689289071
379,Mili,6.0815,171.735,301.6,74,9,6.75,MH,1689289072
380,Ambodifotatra,-16.9833,49.85,295.65,80,87,9.55,MG,1689289073
381,Sarina,-21.4333,149.2167,294.97,67,5,4.8,AU,1689289073
382,Koryazhma,61.3143,47.1691,283.41,98,28,1.31,RU,1689289134
383,Nicoya,10.1483,-85.452,299.28,89,93,1.28,CR,1689289135
384,Selma,36.5708,-119.6121,312.78,17,0,3.6,US,1689289135
385,Kenosha,42.5667,-88.0501,299.51,70,0,3.6,US,1689289136
386,Guadalupe,25.6833,-100.25,310.57,34,12,4.29,MX,1689289137
387,Boda,4.3189,17.4695,294.7,94,97,0.72,CF,1689289138
388,New Norfolk,-42.7826,147.0587,287.99,84,94,3.88,AU,1689289139
389,Acaraú,-2.8856,-40.12,299.27,85,0,7.06,BR,1689288922
390,Makoua,0.0069,15.6333,297.15,78,90,1.41,CG,1689289140
391,Kralendijk,12.15,-68.2667,303.14,74,20,9.26,BQ,1689289141
392,Emba,48.8264,58.1442,289.57,69,36,4.99,KZ,1689289142
393,Camocim,-2.9022,-40.8411,299.45,80,2,6.1,BR,1689289142
394,Poltava,49.5937,34.5407,290.32,87,42,3.89,UA,1689288981
395,Ciudad Madero,22.2667,-97.8333,304.85,72,1,6.29,MX,1689289042
396,Cuéllar,41.3679,-4.3084,295.84,43,0,1.35,ES,1689289144
397,Thul,28.2403,68.7759,306.13,49,2,4.64,PK,1689289145
398,Gebre Guracha,9.8,38.4,285.13,84,74,0.67,ET,1689289146
399,Gore,-46.1028,168.9436,282.06,82,50,3.96,NZ,1689289147
400,Zouérat,22.7187,-12.4521,310.16,8,0,3.6,MR,1689289148
401,Mossel Bay,-34.1831,22.146,284.11,73,15,2.0,ZA,1689289149
402,Moose Jaw,50.4001,-105.5344,293.3,60,100,9.26,CA,1689288927
403,Placer,39.0666,-120.7677,306.15,23,0,0.45,US,1689289150
404,Philadelphia,39.9523,-75.1638,306.8,51,0,6.69,US,1689289006
405,Quesnel,52.9999,-122.5029,293.43,56,100,2.06,CA,1689288912
406,Igarka,67.4667,86.5833,278.6,65,57,2.73,RU,1689289153
407,Kumul,42.8,93.45,299.76,20,0,3.61,CN,1689289153
408,Crane,31.3974,-102.3501,313.6,17,1,7.93,US,1689289154
409,Cabo San Lucas,22.8909,-109.9124,309.05,65,9,5.29,MX,1689288929
410,Bargaal,11.2864,51.0773,302.09,57,32,9.46,SO,1689289156
411,Pudozh,61.8099,36.5345,286.52,96,100,1.75,RU,1689289156
412,Camariñas,43.1311,-9.1817,290.33,80,11,5.2,ES,1689289157
413,Siocon,7.7061,122.1353,299.02,89,100,2.72,PH,1689289158
414,Inverloch,-38.6333,145.7167,285.06,66,100,9.84,AU,1689289159
415,Moree,-29.4667,149.85,286.86,56,0,4.3,AU,1689289159
416,Seneca,41.1167,-83.1166,300.19,69,19,1.74,US,1689288914
417,Luling,29.9322,-90.3665,307.58,64,75,6.17,US,1689288922
418,La Santisima Trinidad,-14.8333,-64.9,294.14,73,40,8.23,BO,1689289161
419,Arrondissement du Havre,49.5833,0.3333,289.02,77,0,1.03,FR,1689289162
420,Awjilah,29.1081,21.2869,300.31,39,0,5.04,LY,1689289163
421,Tela,15.7833,-87.45,305.12,74,40,3.09,HN,1689289164
422,Santa Marta de Ortigueira,43.6833,-7.85,292.73,74,46,0.45,ES,1689289164
423,Władysławowo,54.7909,18.4009,290.34,75,84,3.96,PL,1689289152
424,Al Muwayh,22.4333,41.7583,303.98,16,99,4.15,SA,1689289166
425,Port Lincoln,-34.7333,135.8667,284.26,59,92,6.52,AU,1689289167
426,Cologne,50.9333,6.95,291.46,69,0,1.54,DE,1689288945
427,Tromsø,69.6496,18.957,290.16,77,0,0.51,NO,1689289168
428,Korla,41.7597,86.1469,300.16,34,0,1.9,CN,1689289169
429,Mermoz Boabab,14.7065,-17.4758,302.03,84,20,4.12,SN,1689289169
430,Badīyah,22.45,58.8,302.04,54,100,1.22,OM,1689289230
431,Bocaiúva,-17.1078,-43.815,299.99,37,0,0.76,BR,1689289106
432,Kirakira,-10.4544,161.9205,300.38,79,57,7.24,SB,1689289232
433,Coronel Dorrego,-38.7187,-61.2873,278.18,72,76,3.72,AR,1689289233
434,Ubari,26.5921,12.7805,301.21,17,0,4.89,LY,1689289234
435,Morehead City,34.7229,-76.726,302.6,81,0,6.69,US,1689289235
436,La Toma,-33.0526,-65.6238,278.79,57,29,1.41,AR,1689289235
437,Valente,-11.4122,-39.4619,295.49,52,1,4.3,BR,1689289236
438,Cole Harbour,44.6724,-63.4751,296.58,88,51,4.63,CA,1689289237
439,Puerto Baquerizo Moreno,-0.9,-89.6,299.7,78,75,5.14,EC,1689289238
440,Salavan,15.7167,106.4167,297.05,86,100,1.1,LA,1689289238
441,Ifanadiana,-21.3,47.6333,289.35,99,96,0.58,MG,1689289239
442,Tyrnyauz,43.3828,42.9183,286.41,79,56,2.59,RU,1689289240
443,Berdigestyakh,62.0989,126.6992,287.18,79,79,2.58,RU,1689289241
444,Marble Falls,30.5782,-98.2728,314.66,25,0,5.14,US,1689289242
445,Tommot,58.9564,126.2925,287.41,91,99,0.54,RU,1689289242
446,Neiafu,-18.65,-173.9833,296.53,88,75,5.14,TO,1689289243
447,Eraan,9.0629,117.7016,301.58,80,96,9.74,PH,1689289244
448,Puquio,-14.7,-74.1333,286.28,34,47,1.91,PE,1689289245
449,Praia,14.9215,-23.5087,299.45,89,40,2.06,CV,1689289245
450,Dvinskoy Bereznik,62.8551,42.7072,286.8,98,95,1.66,RU,1689289246
451,Howrah,22.5892,88.3103,302.15,89,40,2.06,IN,1689289247
452,Madalena,41.2162,-8.3345,291.79,88,5,0.38,PT,1689289247
453,Pemangkat,1.1667,108.9667,301.77,78,100,6.95,ID,1689289248
454,Porto Velho,-8.7619,-63.9039,303.18,74,0,1.54,BR,1689289249
455,Kupang,-10.1667,123.5833,297.8,73,54,5.54,ID,1689289032
456,Vanimo,-2.6741,141.3028,300.57,78,93,4.37,PG,1689289250
457,Pangai,-19.8,-174.35,296.21,73,75,6.17,TO,1689289251
458,Chadron,42.8294,-102.9999,298.01,73,75,4.63,US,1689289252
459,Tual,-5.6667,132.75,299.25,81,48,7.98,ID,1689289252
460,Ujae,8.9322,165.7642,301.55,79,31,6.76,MH,1689289253
461,Manjēshvar,12.7,74.8833,297.81,80,99,6.62,IN,1689289254
462,At Tāj,24.2049,23.2857,300.33,20,0,4.39,LY,1689289255
463,Mālvan,16.0667,73.4667,299.99,85,100,9.02,IN,1689289256
464,Īstgāh-e Rāh Āhan-e Garmsār,35.2346,52.3094,304.66,24,1,5.16,IR,1689289257
465,Geraldton,-28.7667,114.6,288.38,88,100,3.6,AU,1689289257
466,Randfontein,-26.1844,27.702,280.2,53,1,2.64,ZA,1689289258
467,Kill Devil Hills,36.0307,-75.676,302.58,70,0,9.26,US,1689289259
468,Hodal,27.9,77.3667,301.97,78,79,1.39,IN,1689289260
469,Kirkwall,58.9848,-2.9587,282.18,81,48,1.54,GB,1689289261
470,Tralee,52.2704,-9.7026,287.39,86,93,3.78,IE,1689289262
471,Lázaro Cárdenas,17.9583,-102.2,303.86,72,9,4.96,MX,1689289263
472,Bloemfontein,-29.1211,26.214,273.86,69,0,1.54,ZA,1689289063
473,Kapaa,22.0752,-159.319,300.43,71,93,3.58,US,1689289264
474,Grand Baie,-20.0182,57.5802,292.84,76,2,4.51,MU,1689289265
475,Leninskiy,54.2781,37.4558,286.61,95,59,3.12,RU,1689289266
476,Pradópolis,-21.3594,-48.0656,297.25,63,63,3.22,BR,1689289267
477,Yuzhno-Kurilsk,44.0306,145.8556,286.92,94,100,5.38,RU,1689289267
478,Holualoa,19.6228,-155.9522,300.09,80,64,2.24,US,1689289228
479,Talcahuano,-36.7167,-73.1167,282.97,71,0,2.57,CL,1689289212
480,Chamdo,31.1667,97.2333,279.34,90,100,1.41,CN,1689289330
481,Camacupa,-12.0167,17.4833,286.09,36,0,1.35,AO,1689289330
482,Bandarbeyla,9.4942,50.8122,297.89,76,47,12.84,SO,1689289331
483,Ghanzi,-21.5667,21.7833,282.36,62,5,3.81,BW,1689289332
484,Natal,-5.795,-35.2094,299.27,83,20,3.6,BR,1689289215
485,Myeik,12.4333,98.6,299.0,86,63,1.98,MM,1689289334
486,San Agustín de Valle Fértil,-30.6335,-67.4682,280.36,50,16,2.72,AR,1689289334
487,Tsiombe,-25.3,45.4833,289.89,70,20,3.21,MG,1689289335
488,Mazagão,-0.115,-51.2894,302.18,86,71,1.8,BR,1689289333
489,Shakawe,-18.3667,21.85,282.72,52,0,2.61,BW,1689289337
490,Florø,61.5996,5.0328,285.13,82,100,6.17,NO,1689289338
491,Pavlogradka,54.2024,73.5592,295.7,65,76,5.01,RU,1689289339
492,Boyolangu,-8.1181,111.8935,296.09,91,91,2.85,ID,1689289339
493,Borovichi,58.3878,33.9155,286.3,92,100,2.47,RU,1689289340
494,Chernyshevsk,52.5243,117.0174,288.24,83,35,2.91,RU,1689289341
495,Sisimiut,66.9395,-53.6735,284.19,72,100,1.74,GL,1689289342
496,Flin Flon,54.7682,-101.865,290.06,63,100,4.12,CA,1689289343
497,Koforidua,6.0941,-0.2591,295.36,97,23,1.47,GH,1689289165
498,Kuta,-8.7233,115.1723,297.12,94,20,0.51,ID,1689289344
499,Xiaolingwei,32.0333,118.85,302.14,86,100,3.04,CN,1689289345
500,Harlingen,26.1906,-97.6961,308.74,80,3,9.9,US,1689289206
501,Richland Center,43.3347,-90.3868,301.05,67,74,2.2,US,1689289347
502,Lagunillas,10.1301,-71.2595,303.83,65,19,2.36,VE,1689289348
503,Kirzhach,56.15,38.8667,284.81,98,100,2.61,RU,1689289349
504,Tokonou,9.65,-9.7833,294.38,95,94,0.73,GN,1689289350
505,Astorga,-23.2325,-51.6656,285.28,65,96,5.96,BR,1689289351
506,Ettrick,37.2402,-77.43,304.41,65,0,0.0,US,1689289352
507,Al Jawf,29.5,38.75,304.06,15,0,2.43,SA,1689289352
508,Rawai,7.7797,98.3253,303.7,99,92,7.81,TH,1689289353
509,Eirunepé,-6.6603,-69.8736,301.45,65,72,0.3,BR,1689289354
510,Lucapa,-8.4192,20.7447,292.72,36,84,1.74,AO,1689289355
511,Mossamedes,-15.1961,12.1522,295.79,33,0,3.98,AO,1689289355
512,Beidao,34.5686,105.8933,288.65,90,95,0.44,CN,1689289356
513,Palmer,42.1584,-72.3287,301.62,65,23,2.24,US,1689289265
514,Chubbuck,42.9208,-112.4661,306.01,18,20,8.23,US,1689289358
515,Rinconada,19.35,-96.5167,304.18,54,15,3.65,MX,1689289359
516,Rawson,-43.3002,-65.1023,280.42,55,98,3.65,AR,1689289263
517,Sangīn,32.0728,64.8359,303.52,11,0,4.83,AF,1689289360
518,Vadsø,70.0744,29.7487,287.64,82,40,6.69,NO,1689289361
519,Castillos,-34.1667,-53.8333,283.04,74,100,6.04,UY,1689289362
520,Mirny,62.5353,113.9611,283.84,87,87,3.13,RU,1689289362
521,Attapu,14.8,106.8333,296.94,95,100,0.15,LA,1689289363
522,Ushibukamachi,32.1906,130.0228,299.94,89,100,7.23,JP,1689289364
523,Kushmurun,52.4503,64.6311,290.46,71,31,3.62,KZ,1689289364
524,Fale old settlement,-9.3852,-171.2468,301.4,75,69,4.1,TK,1689289365
525,Toliara,-23.35,43.6667,290.94,74,0,7.02,MG,1689289366
526,Isla Mujeres,21.2311,-86.731,305.18,74,8,4.01,MX,1689289367
527,Ivdel',60.6911,60.4206,286.9,98,98,4.76,RU,1689289367
528,Mörön,49.6342,100.1625,286.57,83,6,0.59,MN,1689289368
529,Margate,51.3813,1.3862,288.54,87,89,1.79,GB,1689289429
530,Alakurtti,66.9672,30.3491,284.58,71,99,1.45,RU,1689289430
531,San Luis de la Loma,17.2706,-100.8939,304.54,66,8,4.86,MX,1689289431
532,Stephenville,32.2207,-98.2023,315.51,19,0,4.63,US,1689289432
533,Krems,48.4092,15.6142,293.23,73,38,2.53,AT,1689289433
534,Olyokminsk,60.3736,120.4264,291.07,53,61,2.73,RU,1689289434
535,Gamba,-2.65,10.0,292.97,96,6,2.0,GA,1689289434
536,Libenge,3.65,18.6333,294.93,98,100,0.69,CD,1689289435
537,Rosário do Sul,-30.2583,-54.9142,282.29,89,100,4.53,BR,1689289436
538,Zhangaözen,43.3,52.8,296.4,46,0,4.74,KZ,1689289438
539,Isola di Capo Rizzuto,38.96,17.0933,303.81,66,0,4.0,IT,1689289355
540,Pacasmayo,-7.4006,-79.5714,295.12,79,60,6.04,PE,1689289439
541,Conceição da Barra,-18.5933,-39.7322,296.01,84,0,4.89,BR,1689289440
542,Vršac,45.1167,21.3036,295.88,88,0,3.09,RS,1689289441
543,Pathein,16.7833,94.7333,298.94,89,100,1.85,MM,1689289441
544,Kenora,49.8167,-94.4337,296.69,46,75,6.17,CA,1689289442
545,Jinshi,29.6049,111.8701,297.72,89,100,1.18,CN,1689289443
546,Adrar,20.5022,-10.0711,307.81,9,1,3.4,MR,1689289444
547,Lasam,18.0652,121.6006,298.01,98,100,1.28,PH,1689289445
548,Teignmouth,50.5477,-3.4964,289.66,88,100,3.12,GB,1689289446
549,Villa Regina,-39.1,-67.0667,280.54,65,100,3.82,AR,1689289446
550,Mareeba,-17.0,145.4333,295.62,78,37,3.06,AU,1689289447
551,Lamu,-2.2717,40.902,299.27,84,39,7.93,KE,1689289448
552,Vila Velha,-20.3297,-40.2925,298.12,82,0,5.14,BR,1689289355
553,Muaná,-1.5283,-49.2167,298.69,86,69,3.01,BR,1689289449
554,Tadine,-21.55,167.8833,294.03,63,60,8.41,NC,1689289450
555,Zhigalovo,54.8097,105.1578,287.82,71,78,0.85,RU,1689289451
556,Roboré,-18.3333,-59.75,288.06,53,100,2.9,BO,1689289452
557,Puerto Carreño,6.189,-67.4859,303.14,74,40,1.03,CO,1689289453
558,Oujda,34.6805,-1.9076,298.5,21,0,1.03,MA,1689289453
559,Chu,43.5983,73.7614,298.16,20,0,4.35,KZ,1689289454
560,Les Coteaux,45.2834,-74.2325,296.34,83,98,1.54,CA,1689289455
561,Kulhudhuffushi,6.6221,73.07,300.89,78,90,4.85,MV,1689289456
562,Caetés,-8.7731,-36.6225,290.54,96,36,2.31,BR,1689289457
563,Kalāleh,37.3807,55.4916,296.39,66,3,1.66,IR,1689289458
564,Tabuk,17.4189,121.4443,298.11,94,100,0.84,PH,1689289459
565,Santa Cruz del Norte,23.1539,-81.9236,303.22,72,81,6.07,CU,1689289460
566,Alta,69.9689,23.2717,288.81,75,75,3.09,NO,1689289461
567,Juneau,58.3019,-134.4197,295.15,100,40,5.14,US,1689289461
568,Tocopilla,-22.092,-70.1979,291.74,72,79,0.82,CL,1689289462
569,Martapura,-3.4167,114.85,297.2,100,75,0.51,ID,1689289463
570,Puerto López,4.0845,-72.956,298.78,83,12,0.53,CO,1689289464
571,Pärnu,58.3859,24.4971,288.2,94,39,3.09,EE,1689289464
572,Zabaykal'sk,49.6333,117.3167,291.23,82,98,6.23,RU,1689289465
573,Kenai,60.5544,-151.2583,294.2,81,0,4.12,US,1689289189
574,Barguzin,53.6167,109.6167,288.78,63,24,1.89,RU,1689289467
575,Moab,38.5733,-109.5498,314.6,15,2,7.26,US,1689289442
